[
  {
    "name": "Wales",
    "lat": 52.1307,
    "lng": -3.7837,
    "closestLocations": [
      "Llanwrtyd Wells",
      "Tregaron",
      "Llandovery",
      "Llangammarch Wells",
      "Llanwrda"
    ]
  },
  {
    "name": "Dyfed",
    "lat": 51.9861,
    "lng": -4.3587,
    "closestLocations": [
      "Pencader",
      "Llandysul",
      "Newcastle Emlyn",
      "Llanfyrnach",
      "Carmarthen"
    ]
  },
  {
    "name": "Aberaeron",
    "lat": 52.2421,
    "lng": -4.2607,
    "closestLocations": [
      "Llanarth",
      "Llanon",
      "New Quay",
      "Llanrhystud",
      "Lampeter"
    ]
  },
  {
    "name": "Mid Glamorgan",
    "lat": 51.609,
    "lng": -3.5751,
    "closestLocations": [
      "Maesteg",
      "Pentre",
      "Treorchy",
      "Tonypandy",
      "Ferndale"
    ]
  },
  {
    "name": "Aberdare",
    "lat": 51.7136,
    "lng": -3.4441,
    "closestLocations": [
      "Mountain Ash",
      "Ferndale",
      "Merthyr Tydfil",
      "Treorchy",
      "Pentre"
    ]
  },
  {
    "name": "Gwynedd",
    "lat": 52.8396,
    "lng": -4.1309,
    "closestLocations": [
      "Harlech",
      "Llanbedr",
      "Dyffryn Ardudwy",
      "Talsarnau",
      "Porthmadog"
    ]
  },
  {
    "name": "Aberdovey",
    "lat": 52.544,
    "lng": -4.0481,
    "closestLocations": [
      "Tywyn",
      "Borth",
      "Bow Street",
      "Machynlleth",
      "Llwyngwril"
    ]
  },
  {
    "name": "Gwent",
    "lat": 51.6562,
    "lng": -3.0204,
    "closestLocations": [
      "Cwmbran",
      "Pontypool",
      "Newport",
      "Usk",
      "Abertillery"
    ]
  },
  {
    "name": "Abergavenny",
    "lat": 51.8229,
    "lng": -3.0195,
    "closestLocations": [
      "Crickhowell",
      "Abertillery",
      "Pontypool",
      "Ebbw Vale",
      "Usk"
    ]
  },
  {
    "name": "Clwyd",
    "lat": 53.2243,
    "lng": -3.2776,
    "closestLocations": [
      "Holywell",
      "Bagillt",
      "Flint",
      "Denbigh",
      "Mold"
    ]
  },
  {
    "name": "Abergele",
    "lat": 53.2833,
    "lng": -3.5833,
    "closestLocations": [
      "Rhyl",
      "Colwyn Bay",
      "St. Asaph",
      "Prestatyn",
      "Llandudno Junction"
    ]
  },
  {
    "name": "Abertillery",
    "lat": 51.7303,
    "lng": -3.1369,
    "closestLocations": [
      "Ebbw Vale",
      "New Tredegar",
      "Pontypool",
      "Bargoed",
      "Blackwood"
    ]
  },
  {
    "name": "Aberystwyth",
    "lat": 52.4154,
    "lng": -4.0829,
    "closestLocations": [
      "Bow Street",
      "Borth",
      "Aberdovey",
      "Llanrhystud",
      "Ystrad Meurig"
    ]
  },
  {
    "name": "Amlwch",
    "lat": 53.4098,
    "lng": -4.3475,
    "closestLocations": [
      "Penysarn",
      "Cemaes Bay",
      "Dulas",
      "Moelfre",
      "Marianglas"
    ]
  },
  {
    "name": "Ammanford",
    "lat": 51.7939,
    "lng": -3.9896,
    "closestLocations": [
      "Llandeilo",
      "Llanelli",
      "Llangadog",
      "West Glamorgan",
      "Swansea"
    ]
  },
  {
    "name": "Arthog",
    "lat": 52.701,
    "lng": -3.9229,
    "closestLocations": [
      "Talybont",
      "Dolgellau",
      "Fairbourne",
      "Barmouth",
      "Llwyngwril"
    ]
  },
  {
    "name": "Bagillt",
    "lat": 53.2737,
    "lng": -3.1722,
    "closestLocations": [
      "Holywell",
      "Flint",
      "Clwyd",
      "Mold",
      "Deeside"
    ]
  },
  {
    "name": "Bala",
    "lat": 52.9102,
    "lng": -3.5987,
    "closestLocations": [
      "Corwen",
      "Betws-Y-Coed",
      "Dolwyddelan",
      "Blaenau Ffestiniog",
      "Dolgellau"
    ]
  },
  {
    "name": "Bangor",
    "lat": 53.2281,
    "lng": -4.1284,
    "closestLocations": [
      "Menai Bridge",
      "Beaumaris",
      "Llanfairpwllgwyngyll",
      "Y Felinheli",
      "Pentraeth"
    ]
  },
  {
    "name": "Bargoed",
    "lat": 51.6927,
    "lng": -3.231,
    "closestLocations": [
      "New Tredegar",
      "Blackwood",
      "Hengoed",
      "Treharris",
      "Abertillery"
    ]
  },
  {
    "name": "Barmouth",
    "lat": 52.7227,
    "lng": -4.0516,
    "closestLocations": [
      "Fairbourne",
      "Llwyngwril",
      "Dyffryn Ardudwy",
      "Talybont",
      "Arthog"
    ]
  },
  {
    "name": "South Glamorgan",
    "lat": 51.4816,
    "lng": -3.1791,
    "closestLocations": [
      "Cardiff",
      "Penarth",
      "Dinas Powys",
      "Barry",
      "Caerphilly"
    ]
  },
  {
    "name": "Barry",
    "lat": 51.4045,
    "lng": -3.2766,
    "closestLocations": [
      "Dinas Powys",
      "Penarth",
      "South Glamorgan",
      "Cardiff",
      "Cowbridge"
    ]
  },
  {
    "name": "Beaumaris",
    "lat": 53.2636,
    "lng": -4.0911,
    "closestLocations": [
      "Bangor",
      "Menai Bridge",
      "Llanfairfechan",
      "Pentraeth",
      "Llanfairpwllgwyngyll"
    ]
  },
  {
    "name": "Betws-Y-Coed",
    "lat": 53.0927,
    "lng": -3.8003,
    "closestLocations": [
      "Llanrwst",
      "Trefriw",
      "Dolwyddelan",
      "Blaenau Ffestiniog",
      "Conwy"
    ]
  },
  {
    "name": "Blackwood",
    "lat": 51.6659,
    "lng": -3.1916,
    "closestLocations": [
      "Hengoed",
      "Bargoed",
      "New Tredegar",
      "Treharris",
      "Abertillery"
    ]
  },
  {
    "name": "Blaenau Ffestiniog",
    "lat": 52.994,
    "lng": -3.9387,
    "closestLocations": [
      "Dolwyddelan",
      "Penrhyndeudraeth",
      "Talsarnau",
      "Betws-Y-Coed",
      "Porthmadog"
    ]
  },
  {
    "name": "Bodorgan",
    "lat": 53.2035,
    "lng": -4.4202,
    "closestLocations": [
      "Ty Croes",
      "Rhosneigr",
      "Llangefni",
      "Gaerwen",
      "Caernarfon"
    ]
  },
  {
    "name": "Boncath",
    "lat": 52.027,
    "lng": -4.6115,
    "closestLocations": [
      "Crymych",
      "Cardigan",
      "Glogue",
      "Newcastle Emlyn",
      "Llanfyrnach"
    ]
  },
  {
    "name": "Borth",
    "lat": 52.4907,
    "lng": -4.0499,
    "closestLocations": [
      "Aberdovey",
      "Bow Street",
      "Aberystwyth",
      "Tywyn",
      "Machynlleth"
    ]
  },
  {
    "name": "Bow Street",
    "lat": 52.4341,
    "lng": -4.0344,
    "closestLocations": [
      "Aberystwyth",
      "Borth",
      "Aberdovey",
      "Ystrad Meurig",
      "Tywyn"
    ]
  },
  {
    "name": "Powys",
    "lat": 52.2449,
    "lng": -3.4018,
    "closestLocations": [
      "Llandrindod Wells",
      "Rhayader",
      "Builth Wells",
      "Rhosgoch",
      "Llangammarch Wells"
    ]
  },
  {
    "name": "Brecon",
    "lat": 51.9464,
    "lng": -3.3889,
    "closestLocations": [
      "Crickhowell",
      "Tredegar",
      "Llangammarch Wells",
      "Merthyr Tydfil",
      "Ebbw Vale"
    ]
  },
  {
    "name": "Bridgend",
    "lat": 51.5069,
    "lng": -3.577,
    "closestLocations": [
      "Porthcawl",
      "Cowbridge",
      "Mid Glamorgan",
      "Llantwit Major",
      "Pontyclun"
    ]
  },
  {
    "name": "Brynteg",
    "lat": 53.3067,
    "lng": -4.2345,
    "closestLocations": [
      "Llanbedrgoch",
      "Tyn-Y-Gongl",
      "Marianglas",
      "Pentraeth",
      "Moelfre"
    ]
  },
  {
    "name": "Buckley",
    "lat": 53.1701,
    "lng": -3.0806,
    "closestLocations": [
      "Mold",
      "Deeside",
      "Flint",
      "Chester",
      "Bagillt"
    ]
  },
  {
    "name": "Builth Wells",
    "lat": 52.1495,
    "lng": -3.4032,
    "closestLocations": [
      "Llandrindod Wells",
      "Powys",
      "Llangammarch Wells",
      "Llanwrtyd Wells",
      "Rhayader"
    ]
  },
  {
    "name": "Burry Port",
    "lat": 51.6844,
    "lng": -4.2466,
    "closestLocations": [
      "Llanelli",
      "Kidwelly",
      "Ferryside",
      "Carmarthen",
      "Ammanford"
    ]
  },
  {
    "name": "Caernarfon",
    "lat": 53.1397,
    "lng": -4.2739,
    "closestLocations": [
      "Y Felinheli",
      "Llanfairpwllgwyngyll",
      "Gaerwen",
      "Bodorgan",
      "Menai Bridge"
    ]
  },
  {
    "name": "Caerphilly",
    "lat": 51.5768,
    "lng": -3.218,
    "closestLocations": [
      "Hengoed",
      "Pontypridd",
      "Blackwood",
      "South Glamorgan",
      "Cardiff"
    ]
  },
  {
    "name": "Caersws",
    "lat": 52.5143,
    "lng": -3.4366,
    "closestLocations": [
      "Llandinam",
      "Newtown",
      "Llanidloes",
      "Rhosgoch",
      "Llanbrynmair"
    ]
  },
  {
    "name": "Caldicot",
    "lat": 51.591,
    "lng": -2.7503,
    "closestLocations": [
      "Chepstow",
      "Avon",
      "Banwell",
      "Usk",
      "Newport"
    ]
  },
  {
    "name": "Cardiff",
    "lat": 51.4816,
    "lng": -3.1791,
    "closestLocations": [
      "South Glamorgan",
      "Penarth",
      "Dinas Powys",
      "Barry",
      "Caerphilly"
    ]
  },
  {
    "name": "Cardigan",
    "lat": 52.0838,
    "lng": -4.6607,
    "closestLocations": [
      "Boncath",
      "Crymych",
      "Newcastle Emlyn",
      "Glogue",
      "Llanfyrnach"
    ]
  },
  {
    "name": "Carmarthen",
    "lat": 51.8576,
    "lng": -4.3114,
    "closestLocations": [
      "Ferryside",
      "Kidwelly",
      "Dyfed",
      "Llanfyrnach",
      "Burry Port"
    ]
  },
  {
    "name": "Cemaes Bay",
    "lat": 53.4141,
    "lng": -4.4536,
    "closestLocations": [
      "Amlwch",
      "Penysarn",
      "Dulas",
      "Llanerchymedd",
      "Moelfre"
    ]
  },
  {
    "name": "Chepstow",
    "lat": 51.64,
    "lng": -2.6761,
    "closestLocations": [
      "Caldicot",
      "Avon",
      "Berkeley",
      "Newnham",
      "Lydney"
    ]
  },
  {
    "name": "Clarbeston Road",
    "lat": 51.8746,
    "lng": -4.8883,
    "closestLocations": [
      "Haverfordwest",
      "Clynderwen",
      "Narberth",
      "Fishguard",
      "Goodwick"
    ]
  },
  {
    "name": "Clynderwen",
    "lat": 51.8244,
    "lng": -4.7317,
    "closestLocations": [
      "Narberth",
      "Whitland",
      "Kilgetty",
      "Clarbeston Road",
      "Saundersfoot"
    ]
  },
  {
    "name": "Colwyn Bay",
    "lat": 53.2945,
    "lng": -3.7264,
    "closestLocations": [
      "Llandudno Junction",
      "Conwy",
      "Llandudno",
      "Abergele",
      "Penmaenmawr"
    ]
  },
  {
    "name": "Conwy",
    "lat": 53.2815,
    "lng": -3.8275,
    "closestLocations": [
      "Llandudno Junction",
      "Llandudno",
      "Penmaenmawr",
      "Colwyn Bay",
      "Llanfairfechan"
    ]
  },
  {
    "name": "Corwen",
    "lat": 52.9784,
    "lng": -3.3772,
    "closestLocations": [
      "Llangollen",
      "Ruthin",
      "Bala",
      "Denbigh",
      "Oswestry"
    ]
  },
  {
    "name": "Cowbridge",
    "lat": 51.4629,
    "lng": -3.4492,
    "closestLocations": [
      "Llantwit Major",
      "Pontyclun",
      "Bridgend",
      "Barry",
      "Dinas Powys"
    ]
  },
  {
    "name": "Criccieth",
    "lat": 52.9186,
    "lng": -4.2361,
    "closestLocations": [
      "Garndolbenmaen",
      "Porthmadog",
      "Harlech",
      "Talsarnau",
      "Penrhyndeudraeth"
    ]
  },
  {
    "name": "Crickhowell",
    "lat": 51.8593,
    "lng": -3.1372,
    "closestLocations": [
      "Abergavenny",
      "Ebbw Vale",
      "Tredegar",
      "Abertillery",
      "New Tredegar"
    ]
  },
  {
    "name": "Crymych",
    "lat": 51.9756,
    "lng": -4.6466,
    "closestLocations": [
      "Glogue",
      "Boncath",
      "Llanfyrnach",
      "Cardigan",
      "Newcastle Emlyn"
    ]
  },
  {
    "name": "Cwmbran",
    "lat": 51.6547,
    "lng": -3.0205,
    "closestLocations": [
      "Gwent",
      "Pontypool",
      "Newport",
      "Usk",
      "Abertillery"
    ]
  },
  {
    "name": "Deeside",
    "lat": 53.1993,
    "lng": -3.0381,
    "closestLocations": [
      "Buckley",
      "Mold",
      "Flint",
      "Chester",
      "Bagillt"
    ]
  },
  {
    "name": "Denbigh",
    "lat": 53.1834,
    "lng": -3.4212,
    "closestLocations": [
      "St. Asaph",
      "Clwyd",
      "Ruthin",
      "Abergele",
      "Rhyl"
    ]
  },
  {
    "name": "Dinas Powys",
    "lat": 51.4351,
    "lng": -3.2226,
    "closestLocations": [
      "Penarth",
      "Barry",
      "South Glamorgan",
      "Cardiff",
      "Pontyclun"
    ]
  },
  {
    "name": "Dolgellau",
    "lat": 52.7426,
    "lng": -3.8882,
    "closestLocations": [
      "Talybont",
      "Arthog",
      "Barmouth",
      "Fairbourne",
      "Dyffryn Ardudwy"
    ]
  },
  {
    "name": "Dolwyddelan",
    "lat": 53.0472,
    "lng": -3.8837,
    "closestLocations": [
      "Blaenau Ffestiniog",
      "Betws-Y-Coed",
      "Llanrwst",
      "Trefriw",
      "Penrhyndeudraeth"
    ]
  },
  {
    "name": "Dulas",
    "lat": 53.344,
    "lng": -4.323,
    "closestLocations": [
      "Penysarn",
      "Marianglas",
      "Llanerchymedd",
      "Moelfre",
      "Llanbedrgoch"
    ]
  },
  {
    "name": "Dyffryn Ardudwy",
    "lat": 52.7881,
    "lng": -4.1032,
    "closestLocations": [
      "Llanbedr",
      "Gwynedd",
      "Harlech",
      "Barmouth",
      "Fairbourne"
    ]
  },
  {
    "name": "Ebbw Vale",
    "lat": 51.7778,
    "lng": -3.208,
    "closestLocations": [
      "Tredegar",
      "New Tredegar",
      "Abertillery",
      "Bargoed",
      "Crickhowell"
    ]
  },
  {
    "name": "Fairbourne",
    "lat": 52.6961,
    "lng": -4.0496,
    "closestLocations": [
      "Barmouth",
      "Llwyngwril",
      "Arthog",
      "Talybont",
      "Dyffryn Ardudwy"
    ]
  },
  {
    "name": "Ferndale",
    "lat": 51.6612,
    "lng": -3.4532,
    "closestLocations": [
      "Pentre",
      "Treorchy",
      "Tonypandy",
      "Mountain Ash",
      "Aberdare"
    ]
  },
  {
    "name": "Ferryside",
    "lat": 51.7719,
    "lng": -4.372,
    "closestLocations": [
      "Kidwelly",
      "Carmarthen",
      "Burry Port",
      "Whitland",
      "Llanelli"
    ]
  },
  {
    "name": "Fishguard",
    "lat": 51.9939,
    "lng": -4.979,
    "closestLocations": [
      "Goodwick",
      "Clarbeston Road",
      "Haverfordwest",
      "Crymych",
      "Cardigan"
    ]
  },
  {
    "name": "Flint",
    "lat": 53.2474,
    "lng": -3.1325,
    "closestLocations": [
      "Bagillt",
      "Holywell",
      "Deeside",
      "Mold",
      "Buckley"
    ]
  },
  {
    "name": "Gaerwen",
    "lat": 53.239,
    "lng": -4.2882,
    "closestLocations": [
      "Llangefni",
      "Llanfairpwllgwyngyll",
      "Pentraeth",
      "Y Felinheli",
      "Brynteg"
    ]
  },
  {
    "name": "Garndolbenmaen",
    "lat": 52.9764,
    "lng": -4.2039,
    "closestLocations": [
      "Criccieth",
      "Porthmadog",
      "Penrhyndeudraeth",
      "Talsarnau",
      "Harlech"
    ]
  },
  {
    "name": "Glogue",
    "lat": 51.958,
    "lng": -4.607,
    "closestLocations": [
      "Crymych",
      "Llanfyrnach",
      "Boncath",
      "Newcastle Emlyn",
      "Cardigan"
    ]
  },
  {
    "name": "Goodwick",
    "lat": 52.0045,
    "lng": -4.9924,
    "closestLocations": [
      "Fishguard",
      "Clarbeston Road",
      "Haverfordwest",
      "Crymych",
      "Cardigan"
    ]
  },
  {
    "name": "Harlech",
    "lat": 52.8604,
    "lng": -4.1082,
    "closestLocations": [
      "Gwynedd",
      "Llanbedr",
      "Talsarnau",
      "Porthmadog",
      "Dyffryn Ardudwy"
    ]
  },
  {
    "name": "Haverfordwest",
    "lat": 51.8012,
    "lng": -4.969,
    "closestLocations": [
      "Clarbeston Road",
      "Milford Haven",
      "Pembroke Dock",
      "Pembroke",
      "Narberth"
    ]
  },
  {
    "name": "Hengoed",
    "lat": 51.6525,
    "lng": -3.2328,
    "closestLocations": [
      "Blackwood",
      "Bargoed",
      "Treharris",
      "New Tredegar",
      "Caerphilly"
    ]
  },
  {
    "name": "Holyhead",
    "lat": 53.311,
    "lng": -4.6314,
    "closestLocations": [
      "Rhosneigr",
      "Ty Croes",
      "Cemaes Bay",
      "Llanerchymedd",
      "Bodorgan"
    ]
  },
  {
    "name": "Holywell",
    "lat": 53.2746,
    "lng": -3.2203,
    "closestLocations": [
      "Bagillt",
      "Flint",
      "Clwyd",
      "Mold",
      "Prestatyn"
    ]
  },
  {
    "name": "Kidwelly",
    "lat": 51.7357,
    "lng": -4.3081,
    "closestLocations": [
      "Ferryside",
      "Burry Port",
      "Llanelli",
      "Carmarthen",
      "Ammanford"
    ]
  },
  {
    "name": "Kilgetty",
    "lat": 51.7314,
    "lng": -4.7172,
    "closestLocations": [
      "Saundersfoot",
      "Tenby",
      "Narberth",
      "Clynderwen",
      "Whitland"
    ]
  },
  {
    "name": "Knighton",
    "lat": 52.3426,
    "lng": -3.0492,
    "closestLocations": [
      "Presteigne",
      "Kington",
      "Lydbury North",
      "Craven Arms",
      "Bucknell"
    ]
  },
  {
    "name": "Lampeter",
    "lat": 52.1137,
    "lng": -4.0797,
    "closestLocations": [
      "Llanybydder",
      "Tregaron",
      "Llandysul",
      "Pencader",
      "Aberaeron"
    ]
  },
  {
    "name": "Llanarth",
    "lat": 52.2137,
    "lng": -4.309,
    "closestLocations": [
      "New Quay",
      "Aberaeron",
      "Llanon",
      "Llanrhystud",
      "Llanybydder"
    ]
  },
  {
    "name": "Llanbedr",
    "lat": 52.8192,
    "lng": -4.1009,
    "closestLocations": [
      "Gwynedd",
      "Dyffryn Ardudwy",
      "Harlech",
      "Talsarnau",
      "Barmouth"
    ]
  },
  {
    "name": "Llanbedrgoch",
    "lat": 53.3124,
    "lng": -4.2583,
    "closestLocations": [
      "Brynteg",
      "Marianglas",
      "Tyn-Y-Gongl",
      "Moelfre",
      "Pentraeth"
    ]
  },
  {
    "name": "Llanbrynmair",
    "lat": 52.612,
    "lng": -3.6437,
    "closestLocations": [
      "Machynlleth",
      "Caersws",
      "Llanidloes",
      "Arthog",
      "Llandinam"
    ]
  },
  {
    "name": "Llandeilo",
    "lat": 51.8851,
    "lng": -3.9936,
    "closestLocations": [
      "Ammanford",
      "Llangadog",
      "Llanwrda",
      "Llandovery",
      "Carmarthen"
    ]
  },
  {
    "name": "Llandinam",
    "lat": 52.4842,
    "lng": -3.4051,
    "closestLocations": [
      "Caersws",
      "Newtown",
      "Llanidloes",
      "Rhosgoch",
      "Montgomery"
    ]
  },
  {
    "name": "Llandovery",
    "lat": 51.9956,
    "lng": -3.7977,
    "closestLocations": [
      "Llanwrda",
      "Llangadog",
      "Wales",
      "Llanwrtyd Wells",
      "Llandeilo"
    ]
  },
  {
    "name": "Llandrindod Wells",
    "lat": 52.2413,
    "lng": -3.3784,
    "closestLocations": [
      "Powys",
      "Builth Wells",
      "Rhayader",
      "Rhosgoch",
      "Llangammarch Wells"
    ]
  },
  {
    "name": "Llandudno",
    "lat": 53.3244,
    "lng": -3.8271,
    "closestLocations": [
      "Llandudno Junction",
      "Conwy",
      "Colwyn Bay",
      "Penmaenmawr",
      "Llanfairfechan"
    ]
  },
  {
    "name": "Llandudno Junction",
    "lat": 53.2861,
    "lng": -3.8075,
    "closestLocations": [
      "Conwy",
      "Llandudno",
      "Colwyn Bay",
      "Penmaenmawr",
      "Llanfairfechan"
    ]
  },
  {
    "name": "Llandysul",
    "lat": 52.0407,
    "lng": -4.306,
    "closestLocations": [
      "Pencader",
      "Dyfed",
      "Newcastle Emlyn",
      "Llanybydder",
      "Lampeter"
    ]
  },
  {
    "name": "Llanelli",
    "lat": 51.68,
    "lng": -4.162,
    "closestLocations": [
      "Burry Port",
      "Kidwelly",
      "West Glamorgan",
      "Swansea",
      "Ammanford"
    ]
  },
  {
    "name": "Llanerchymedd",
    "lat": 53.3123,
    "lng": -4.3774,
    "closestLocations": [
      "Dulas",
      "Llangefni",
      "Penysarn",
      "Llanbedrgoch",
      "Marianglas"
    ]
  },
  {
    "name": "Llanfairfechan",
    "lat": 53.2555,
    "lng": -3.9732,
    "closestLocations": [
      "Penmaenmawr",
      "Beaumaris",
      "Conwy",
      "Bangor",
      "Llandudno Junction"
    ]
  },
  {
    "name": "Llanfairpwllgwyngyll",
    "lat": 53.2218,
    "lng": -4.2093,
    "closestLocations": [
      "Menai Bridge",
      "Y Felinheli",
      "Bangor",
      "Gaerwen",
      "Pentraeth"
    ]
  },
  {
    "name": "Llanfechain",
    "lat": 52.7741,
    "lng": -3.1835,
    "closestLocations": [
      "Llansantffraid",
      "Llanfyllin",
      "Llanymynech",
      "Meifod",
      "Welshpool"
    ]
  },
  {
    "name": "Llanfyllin",
    "lat": 52.764,
    "lng": -3.2732,
    "closestLocations": [
      "Llanfechain",
      "Meifod",
      "Llansantffraid",
      "Llanymynech",
      "Welshpool"
    ]
  },
  {
    "name": "Llanfyrnach",
    "lat": 51.9435,
    "lng": -4.552,
    "closestLocations": [
      "Glogue",
      "Crymych",
      "Boncath",
      "Newcastle Emlyn",
      "Dyfed"
    ]
  },
  {
    "name": "Llangadog",
    "lat": 51.9409,
    "lng": -3.8757,
    "closestLocations": [
      "Llanwrda",
      "Llandovery",
      "Llandeilo",
      "Ammanford",
      "Wales"
    ]
  },
  {
    "name": "Llangammarch Wells",
    "lat": 52.1136,
    "lng": -3.555,
    "closestLocations": [
      "Llanwrtyd Wells",
      "Builth Wells",
      "Wales",
      "Powys",
      "Llandrindod Wells"
    ]
  },
  {
    "name": "Llangefni",
    "lat": 53.2563,
    "lng": -4.3113,
    "closestLocations": [
      "Gaerwen",
      "Pentraeth",
      "Llanbedrgoch",
      "Brynteg",
      "Llanerchymedd"
    ]
  },
  {
    "name": "Llangollen",
    "lat": 52.9706,
    "lng": -3.1705,
    "closestLocations": [
      "Wrexham",
      "Corwen",
      "Oswestry",
      "Ruthin",
      "Ellesmere"
    ]
  },
  {
    "name": "Llanidloes",
    "lat": 52.4487,
    "lng": -3.5377,
    "closestLocations": [
      "Llandinam",
      "Caersws",
      "Rhosgoch",
      "Rhayader",
      "Newtown"
    ]
  },
  {
    "name": "Llanon",
    "lat": 52.2782,
    "lng": -4.1866,
    "closestLocations": [
      "Llanrhystud",
      "Aberaeron",
      "Llanarth",
      "New Quay",
      "Aberystwyth"
    ]
  },
  {
    "name": "Llanrhystud",
    "lat": 52.2909,
    "lng": -4.1585,
    "closestLocations": [
      "Llanon",
      "Aberaeron",
      "Llanarth",
      "Aberystwyth",
      "New Quay"
    ]
  },
  {
    "name": "Llanrwst",
    "lat": 53.1391,
    "lng": -3.796,
    "closestLocations": [
      "Trefriw",
      "Betws-Y-Coed",
      "Dolwyddelan",
      "Conwy",
      "Llandudno Junction"
    ]
  },
  {
    "name": "Llansantffraid",
    "lat": 52.7751,
    "lng": -3.1582,
    "closestLocations": [
      "Llanfechain",
      "Llanymynech",
      "Llanfyllin",
      "Meifod",
      "Oswestry"
    ]
  },
  {
    "name": "Llantwit Major",
    "lat": 51.4083,
    "lng": -3.4844,
    "closestLocations": [
      "Cowbridge",
      "Bridgend",
      "Pontyclun",
      "Barry",
      "Porthcawl"
    ]
  },
  {
    "name": "Llanwrda",
    "lat": 51.9785,
    "lng": -3.8703,
    "closestLocations": [
      "Llangadog",
      "Llandovery",
      "Llandeilo",
      "Wales",
      "Lampeter"
    ]
  },
  {
    "name": "Llanwrtyd Wells",
    "lat": 52.1054,
    "lng": -3.6369,
    "closestLocations": [
      "Llangammarch Wells",
      "Wales",
      "Llandovery",
      "Builth Wells",
      "Llanwrda"
    ]
  },
  {
    "name": "Llanybydder",
    "lat": 52.0759,
    "lng": -4.1476,
    "closestLocations": [
      "Lampeter",
      "Llandysul",
      "Pencader",
      "Dyfed",
      "Llanarth"
    ]
  },
  {
    "name": "Llanymynech",
    "lat": 52.7711,
    "lng": -3.0865,
    "closestLocations": [
      "Llansantffraid",
      "Llanfechain",
      "Oswestry",
      "Llanfyllin",
      "Welshpool"
    ]
  },
  {
    "name": "Llwyngwril",
    "lat": 52.6716,
    "lng": -4.0868,
    "closestLocations": [
      "Fairbourne",
      "Barmouth",
      "Tywyn",
      "Arthog",
      "Talybont"
    ]
  },
  {
    "name": "Machynlleth",
    "lat": 52.5901,
    "lng": -3.8517,
    "closestLocations": [
      "Arthog",
      "Aberdovey",
      "Llanbrynmair",
      "Tywyn",
      "Dolgellau"
    ]
  },
  {
    "name": "Maesteg",
    "lat": 51.611,
    "lng": -3.6621,
    "closestLocations": [
      "Mid Glamorgan",
      "Port Talbot",
      "Neath",
      "Treorchy",
      "Pentre"
    ]
  },
  {
    "name": "Marianglas",
    "lat": 53.33,
    "lng": -4.26,
    "closestLocations": [
      "Tyn-Y-Gongl",
      "Llanbedrgoch",
      "Moelfre",
      "Brynteg",
      "Dulas"
    ]
  },
  {
    "name": "Meifod",
    "lat": 52.7034,
    "lng": -3.268,
    "closestLocations": [
      "Llanfyllin",
      "Welshpool",
      "Llanfechain",
      "Llansantffraid",
      "Llanymynech"
    ]
  },
  {
    "name": "Menai Bridge",
    "lat": 53.2267,
    "lng": -4.1615,
    "closestLocations": [
      "Bangor",
      "Llanfairpwllgwyngyll",
      "Y Felinheli",
      "Beaumaris",
      "Pentraeth"
    ]
  },
  {
    "name": "Merthyr Tydfil",
    "lat": 51.7475,
    "lng": -3.3781,
    "closestLocations": [
      "Aberdare",
      "Mountain Ash",
      "Tredegar",
      "New Tredegar",
      "Treharris"
    ]
  },
  {
    "name": "Milford Haven",
    "lat": 51.713,
    "lng": -5.0371,
    "closestLocations": [
      "Pembroke Dock",
      "Pembroke",
      "Haverfordwest",
      "Clarbeston Road",
      "Kilgetty"
    ]
  },
  {
    "name": "Moelfre",
    "lat": 53.3522,
    "lng": -4.2467,
    "closestLocations": [
      "Marianglas",
      "Tyn-Y-Gongl",
      "Llanbedrgoch",
      "Brynteg",
      "Dulas"
    ]
  },
  {
    "name": "Mold",
    "lat": 53.1697,
    "lng": -3.1416,
    "closestLocations": [
      "Buckley",
      "Deeside",
      "Flint",
      "Clwyd",
      "Bagillt"
    ]
  },
  {
    "name": "Monmouth",
    "lat": 51.8127,
    "lng": -2.7165,
    "closestLocations": [
      "Coleford",
      "Ross-On-Wye",
      "Lydbrook",
      "Newnham",
      "Drybrook"
    ]
  },
  {
    "name": "Montgomery",
    "lat": 52.5586,
    "lng": -3.1454,
    "closestLocations": [
      "Welshpool",
      "Newtown",
      "Lydbury North",
      "Meifod",
      "Bishops Castle"
    ]
  },
  {
    "name": "Mountain Ash",
    "lat": 51.6823,
    "lng": -3.3816,
    "closestLocations": [
      "Ferndale",
      "Aberdare",
      "Treharris",
      "Merthyr Tydfil",
      "Porth"
    ]
  },
  {
    "name": "Narberth",
    "lat": 51.7987,
    "lng": -4.7431,
    "closestLocations": [
      "Clynderwen",
      "Kilgetty",
      "Whitland",
      "Saundersfoot",
      "Clarbeston Road"
    ]
  },
  {
    "name": "West Glamorgan",
    "lat": 51.6254,
    "lng": -3.943,
    "closestLocations": [
      "Swansea",
      "Neath",
      "Port Talbot",
      "Llanelli",
      "Ammanford"
    ]
  },
  {
    "name": "Neath",
    "lat": 51.6614,
    "lng": -3.8049,
    "closestLocations": [
      "Port Talbot",
      "West Glamorgan",
      "Swansea",
      "Maesteg",
      "Mid Glamorgan"
    ]
  },
  {
    "name": "New Quay",
    "lat": 52.2144,
    "lng": -4.3581,
    "closestLocations": [
      "Llanarth",
      "Aberaeron",
      "Llanon",
      "Llanrhystud",
      "Pencader"
    ]
  },
  {
    "name": "New Tredegar",
    "lat": 51.7209,
    "lng": -3.2416,
    "closestLocations": [
      "Bargoed",
      "Tredegar",
      "Ebbw Vale",
      "Blackwood",
      "Abertillery"
    ]
  },
  {
    "name": "Newcastle Emlyn",
    "lat": 52.0392,
    "lng": -4.4689,
    "closestLocations": [
      "Dyfed",
      "Boncath",
      "Pencader",
      "Llandysul",
      "Llanfyrnach"
    ]
  },
  {
    "name": "Newport",
    "lat": 51.5842,
    "lng": -2.9977,
    "closestLocations": [
      "Cwmbran",
      "Gwent",
      "Pontypool",
      "Usk",
      "Caerphilly"
    ]
  },
  {
    "name": "Newtown",
    "lat": 52.5144,
    "lng": -3.3158,
    "closestLocations": [
      "Llandinam",
      "Caersws",
      "Montgomery",
      "Llanidloes",
      "Rhosgoch"
    ]
  },
  {
    "name": "Pembroke Dock",
    "lat": 51.6928,
    "lng": -4.9409,
    "closestLocations": [
      "Pembroke",
      "Milford Haven",
      "Haverfordwest",
      "Kilgetty",
      "Saundersfoot"
    ]
  },
  {
    "name": "Pembroke",
    "lat": 51.6775,
    "lng": -4.9143,
    "closestLocations": [
      "Pembroke Dock",
      "Milford Haven",
      "Haverfordwest",
      "Tenby",
      "Kilgetty"
    ]
  },
  {
    "name": "Penarth",
    "lat": 51.4396,
    "lng": -3.1737,
    "closestLocations": [
      "Dinas Powys",
      "South Glamorgan",
      "Cardiff",
      "Barry",
      "Caerphilly"
    ]
  },
  {
    "name": "Pencader",
    "lat": 52.0426,
    "lng": -4.3145,
    "closestLocations": [
      "Llandysul",
      "Dyfed",
      "Newcastle Emlyn",
      "Llanybydder",
      "Lampeter"
    ]
  },
  {
    "name": "Penmaenmawr",
    "lat": 53.2696,
    "lng": -3.9255,
    "closestLocations": [
      "Llanfairfechan",
      "Conwy",
      "Llandudno Junction",
      "Llandudno",
      "Beaumaris"
    ]
  },
  {
    "name": "Penrhyndeudraeth",
    "lat": 52.9317,
    "lng": -4.0703,
    "closestLocations": [
      "Talsarnau",
      "Porthmadog",
      "Harlech",
      "Garndolbenmaen",
      "Gwynedd"
    ]
  },
  {
    "name": "Pentraeth",
    "lat": 53.2766,
    "lng": -4.2125,
    "closestLocations": [
      "Brynteg",
      "Llanbedrgoch",
      "Tyn-Y-Gongl",
      "Llanfairpwllgwyngyll",
      "Menai Bridge"
    ]
  },
  {
    "name": "Pentre",
    "lat": 51.6459,
    "lng": -3.4915,
    "closestLocations": [
      "Treorchy",
      "Ferndale",
      "Tonypandy",
      "Porth",
      "Mid Glamorgan"
    ]
  },
  {
    "name": "Penysarn",
    "lat": 53.3796,
    "lng": -4.351,
    "closestLocations": [
      "Amlwch",
      "Dulas",
      "Moelfre",
      "Llanerchymedd",
      "Cemaes Bay"
    ]
  },
  {
    "name": "Pontyclun",
    "lat": 51.5237,
    "lng": -3.3925,
    "closestLocations": [
      "Cowbridge",
      "Pontypridd",
      "Porth",
      "Tonypandy",
      "Bridgend"
    ]
  },
  {
    "name": "Pontypool",
    "lat": 51.702,
    "lng": -3.04,
    "closestLocations": [
      "Gwent",
      "Cwmbran",
      "Abertillery",
      "Usk",
      "Blackwood"
    ]
  },
  {
    "name": "Pontypridd",
    "lat": 51.6027,
    "lng": -3.3421,
    "closestLocations": [
      "Porth",
      "Treharris",
      "Tonypandy",
      "Caerphilly",
      "Mountain Ash"
    ]
  },
  {
    "name": "Port Talbot",
    "lat": 51.595,
    "lng": -3.7815,
    "closestLocations": [
      "Neath",
      "Maesteg",
      "Swansea",
      "West Glamorgan",
      "Porthcawl"
    ]
  },
  {
    "name": "Porth",
    "lat": 51.6113,
    "lng": -3.4087,
    "closestLocations": [
      "Tonypandy",
      "Pontypridd",
      "Ferndale",
      "Pentre",
      "Mountain Ash"
    ]
  },
  {
    "name": "Porthcawl",
    "lat": 51.4785,
    "lng": -3.7033,
    "closestLocations": [
      "Bridgend",
      "Port Talbot",
      "Maesteg",
      "Mid Glamorgan",
      "Llantwit Major"
    ]
  },
  {
    "name": "Porthmadog",
    "lat": 52.9275,
    "lng": -4.1325,
    "closestLocations": [
      "Penrhyndeudraeth",
      "Talsarnau",
      "Criccieth",
      "Garndolbenmaen",
      "Harlech"
    ]
  },
  {
    "name": "Prestatyn",
    "lat": 53.3365,
    "lng": -3.4088,
    "closestLocations": [
      "Rhyl",
      "St. Asaph",
      "Abergele",
      "Holywell",
      "Clwyd"
    ]
  },
  {
    "name": "Presteigne",
    "lat": 52.2736,
    "lng": -3.005,
    "closestLocations": [
      "Kington",
      "Knighton",
      "Leominster",
      "Bucknell",
      "Craven Arms"
    ]
  },
  {
    "name": "Pwllheli",
    "lat": 52.8888,
    "lng": -4.4185,
    "closestLocations": [
      "Criccieth",
      "Garndolbenmaen",
      "Porthmadog",
      "Gwynedd",
      "Harlech"
    ]
  },
  {
    "name": "Rhayader",
    "lat": 52.3009,
    "lng": -3.5135,
    "closestLocations": [
      "Powys",
      "Rhosgoch",
      "Llandrindod Wells",
      "Llanidloes",
      "Builth Wells"
    ]
  },
  {
    "name": "Rhosgoch",
    "lat": 52.3728,
    "lng": -3.4047,
    "closestLocations": [
      "Rhayader",
      "Llanidloes",
      "Llandinam",
      "Powys",
      "Llandrindod Wells"
    ]
  },
  {
    "name": "Rhosneigr",
    "lat": 53.235,
    "lng": -4.5203,
    "closestLocations": [
      "Ty Croes",
      "Bodorgan",
      "Holyhead",
      "Llanerchymedd",
      "Llangefni"
    ]
  },
  {
    "name": "Rhyl",
    "lat": 53.3196,
    "lng": -3.4923,
    "closestLocations": [
      "Prestatyn",
      "Abergele",
      "St. Asaph",
      "Colwyn Bay",
      "Denbigh"
    ]
  },
  {
    "name": "Ruthin",
    "lat": 53.1144,
    "lng": -3.3081,
    "closestLocations": [
      "Denbigh",
      "Clwyd",
      "Mold",
      "Corwen",
      "Buckley"
    ]
  },
  {
    "name": "Saundersfoot",
    "lat": 51.7119,
    "lng": -4.7021,
    "closestLocations": [
      "Kilgetty",
      "Tenby",
      "Narberth",
      "Clynderwen",
      "Whitland"
    ]
  },
  {
    "name": "St. Asaph",
    "lat": 53.2575,
    "lng": -3.4414,
    "closestLocations": [
      "Rhyl",
      "Denbigh",
      "Prestatyn",
      "Abergele",
      "Clwyd"
    ]
  },
  {
    "name": "Swansea",
    "lat": 51.6214,
    "lng": -3.9436,
    "closestLocations": [
      "West Glamorgan",
      "Neath",
      "Port Talbot",
      "Llanelli",
      "Ammanford"
    ]
  },
  {
    "name": "Talsarnau",
    "lat": 52.9164,
    "lng": -4.071,
    "closestLocations": [
      "Penrhyndeudraeth",
      "Porthmadog",
      "Harlech",
      "Gwynedd",
      "Llanbedr"
    ]
  },
  {
    "name": "Talybont",
    "lat": 52.7433,
    "lng": -3.9354,
    "closestLocations": [
      "Dolgellau",
      "Arthog",
      "Barmouth",
      "Fairbourne",
      "Dyffryn Ardudwy"
    ]
  },
  {
    "name": "Tenby",
    "lat": 51.6737,
    "lng": -4.7009,
    "closestLocations": [
      "Saundersfoot",
      "Kilgetty",
      "Narberth",
      "Pembroke",
      "Pembroke Dock"
    ]
  },
  {
    "name": "Tonypandy",
    "lat": 51.6195,
    "lng": -3.4465,
    "closestLocations": [
      "Porth",
      "Pentre",
      "Ferndale",
      "Treorchy",
      "Pontypridd"
    ]
  },
  {
    "name": "Tredegar",
    "lat": 51.7727,
    "lng": -3.2433,
    "closestLocations": [
      "Ebbw Vale",
      "New Tredegar",
      "Abertillery",
      "Bargoed",
      "Merthyr Tydfil"
    ]
  },
  {
    "name": "Trefriw",
    "lat": 53.1512,
    "lng": -3.8364,
    "closestLocations": [
      "Llanrwst",
      "Betws-Y-Coed",
      "Dolwyddelan",
      "Penmaenmawr",
      "Conwy"
    ]
  },
  {
    "name": "Tregaron",
    "lat": 52.2227,
    "lng": -3.9333,
    "closestLocations": [
      "Ystrad Meurig",
      "Wales",
      "Lampeter",
      "Llanrhystud",
      "Llanon"
    ]
  },
  {
    "name": "Treharris",
    "lat": 51.6641,
    "lng": -3.3051,
    "closestLocations": [
      "Hengoed",
      "Mountain Ash",
      "Bargoed",
      "Pontypridd",
      "New Tredegar"
    ]
  },
  {
    "name": "Treorchy",
    "lat": 51.6594,
    "lng": -3.5055,
    "closestLocations": [
      "Pentre",
      "Ferndale",
      "Tonypandy",
      "Aberdare",
      "Mid Glamorgan"
    ]
  },
  {
    "name": "Ty Croes",
    "lat": 53.2358,
    "lng": -4.5163,
    "closestLocations": [
      "Rhosneigr",
      "Bodorgan",
      "Holyhead",
      "Llanerchymedd",
      "Llangefni"
    ]
  },
  {
    "name": "Tyn-Y-Gongl",
    "lat": 53.3283,
    "lng": -4.2364,
    "closestLocations": [
      "Marianglas",
      "Llanbedrgoch",
      "Brynteg",
      "Moelfre",
      "Pentraeth"
    ]
  },
  {
    "name": "Tywyn",
    "lat": 52.5857,
    "lng": -4.0906,
    "closestLocations": [
      "Aberdovey",
      "Llwyngwril",
      "Borth",
      "Fairbourne",
      "Barmouth"
    ]
  },
  {
    "name": "Usk",
    "lat": 51.7039,
    "lng": -2.9044,
    "closestLocations": [
      "Pontypool",
      "Gwent",
      "Cwmbran",
      "Newport",
      "Abergavenny"
    ]
  },
  {
    "name": "Welshpool",
    "lat": 52.6626,
    "lng": -3.1491,
    "closestLocations": [
      "Meifod",
      "Montgomery",
      "Llansantffraid",
      "Llanfechain",
      "Llanymynech"
    ]
  },
  {
    "name": "Whitland",
    "lat": 51.8183,
    "lng": -4.6141,
    "closestLocations": [
      "Clynderwen",
      "Narberth",
      "Kilgetty",
      "Saundersfoot",
      "Llanfyrnach"
    ]
  },
  {
    "name": "Wrexham",
    "lat": 53.0015,
    "lng": -2.9955,
    "closestLocations": [
      "Ellesmere",
      "Llangollen",
      "Oswestry",
      "Buckley",
      "Malpas"
    ]
  },
  {
    "name": "Y Felinheli",
    "lat": 53.1848,
    "lng": -4.2118,
    "closestLocations": [
      "Llanfairpwllgwyngyll",
      "Menai Bridge",
      "Caernarfon",
      "Bangor",
      "Gaerwen"
    ]
  },
  {
    "name": "Ystrad Meurig",
    "lat": 52.3149,
    "lng": -3.9207,
    "closestLocations": [
      "Tregaron",
      "Bow Street",
      "Aberystwyth",
      "Llanrhystud",
      "Llanon"
    ]
  },
  {
    "name": "USA",
    "lat": 37.0902,
    "lng": -95.7129,
    "closestLocations": []
  },
  {
    "name": "Tennessee",
    "lat": 35.7476,
    "lng": -86.6929,
    "closestLocations": [
      "Nashville"
    ]
  },
  {
    "name": "Nashville",
    "lat": 36.1627,
    "lng": -86.7816,
    "closestLocations": [
      "Tennessee"
    ]
  },
  {
    "name": "Texas",
    "lat": 31.9686,
    "lng": -99.9018,
    "closestLocations": []
  },
  {
    "name": "Houston",
    "lat": 29.7604,
    "lng": -95.3698,
    "closestLocations": []
  },
  {
    "name": "Dallas",
    "lat": 32.7767,
    "lng": -96.797,
    "closestLocations": []
  },
  {
    "name": "Illinois",
    "lat": 40.6331,
    "lng": -89.3985,
    "closestLocations": []
  },
  {
    "name": "Chicago",
    "lat": 41.8781,
    "lng": -87.6298,
    "closestLocations": []
  },
  {
    "name": "New York",
    "lat": 40.7128,
    "lng": -74.006,
    "closestLocations": [
      "NYC"
    ]
  },
  {
    "name": "NYC",
    "lat": 40.7128,
    "lng": -74.006,
    "closestLocations": [
      "New York"
    ]
  },
  {
    "name": "Switzerland",
    "lat": 46.8182,
    "lng": 8.2275,
    "closestLocations": [
      "Zurich"
    ]
  },
  {
    "name": "Zurich",
    "lat": 47.3769,
    "lng": 8.5417,
    "closestLocations": [
      "Switzerland"
    ]
  },
  {
    "name": "Scotland",
    "lat": 56.4907,
    "lng": -4.2026,
    "closestLocations": [
      "Killin",
      "Lochearnhead",
      "Aberfeldy",
      "Crieff",
      "Callander"
    ]
  },
  {
    "name": "Aberdeenshire",
    "lat": 57.1508,
    "lng": -2.1224,
    "closestLocations": [
      "Aberdeen",
      "Westhill, Aberdeenshire",
      "Milltimber",
      "Peterculter",
      "Stonehaven"
    ]
  },
  {
    "name": "Aberdeen",
    "lat": 57.1497,
    "lng": -2.0943,
    "closestLocations": [
      "Aberdeenshire",
      "Westhill, Aberdeenshire",
      "Milltimber",
      "Peterculter",
      "Stonehaven"
    ]
  },
  {
    "name": "Perthshire",
    "lat": 56.6224,
    "lng": -3.7277,
    "closestLocations": [
      "Dunkeld",
      "Aberfeldy",
      "Pitlochry",
      "Blairgowrie",
      "Crieff"
    ]
  },
  {
    "name": "Aberfeldy",
    "lat": 56.62,
    "lng": -3.8484,
    "closestLocations": [
      "Perthshire",
      "Pitlochry",
      "Dunkeld",
      "Scotland",
      "Crieff"
    ]
  },
  {
    "name": "Banffshire",
    "lat": 57.6158,
    "lng": -3.134,
    "closestLocations": [
      "Fochabers",
      "Buckie",
      "Lossiemouth",
      "Elgin",
      "Keith"
    ]
  },
  {
    "name": "Aberlour",
    "lat": 57.4667,
    "lng": -3.2063,
    "closestLocations": [
      "Ballindalloch",
      "Banffshire",
      "Keith",
      "Fochabers",
      "Buckie"
    ]
  },
  {
    "name": "Aboyne",
    "lat": 57.0457,
    "lng": -2.8559,
    "closestLocations": [
      "Strathdon",
      "Alford, Aberdeenshire",
      "Banchory",
      "Ballater",
      "Laurencekirk"
    ]
  },
  {
    "name": "Argyll",
    "lat": 56.25,
    "lng": -5.5,
    "closestLocations": [
      "Oban",
      "Inveraray",
      "Tighnabruaich",
      "Dalmally",
      "Lochgilphead"
    ]
  },
  {
    "name": "Acharacle",
    "lat": 56.5867,
    "lng": -5.95,
    "closestLocations": [
      "Isle of Mull",
      "Isle of Iona",
      "Isle of Eigg",
      "Isle of Canna",
      "Oban"
    ]
  },
  {
    "name": "Ross-Shire",
    "lat": 57.675,
    "lng": -4.6,
    "closestLocations": [
      "Strathpeffer",
      "Dingwall",
      "Alness",
      "Invergordon",
      "Muir Of Ord"
    ]
  },
  {
    "name": "Achnasheen",
    "lat": 57.5,
    "lng": -5.3,
    "closestLocations": [
      "Strathcarron",
      "Garve",
      "Strome Ferry",
      "Plockton",
      "Gairloch"
    ]
  },
  {
    "name": "Lanarkshire",
    "lat": 55.7,
    "lng": -3.9,
    "closestLocations": [
      "Carluke",
      "Larkhall, Lanarkshire",
      "Wishaw, Lanarkshire",
      "Strathaven",
      "Lanark"
    ]
  },
  {
    "name": "Airdrie",
    "lat": 55.7655,
    "lng": -3.9887,
    "closestLocations": [
      "Larkhall, Lanarkshire",
      "Motherwell",
      "Hamilton, Lanarkshire",
      "Wishaw, Lanarkshire",
      "Bellshill, Lanarkshire"
    ]
  },
  {
    "name": "Dunbartonshire",
    "lat": 55.95,
    "lng": -4.45,
    "closestLocations": [
      "Bishopton, Renfrewshire",
      "Clydebank",
      "Erskine",
      "Renfrew",
      "Dumbarton"
    ]
  },
  {
    "name": "Alexandria, Dunbartonshire",
    "lat": 55.9763,
    "lng": -4.5864,
    "closestLocations": [
      "Dumbarton",
      "Port Glasgow",
      "Bishopton, Renfrewshire",
      "Greenock",
      "Dunbartonshire"
    ]
  },
  {
    "name": "Alford, Aberdeenshire",
    "lat": 57.1722,
    "lng": -2.6333,
    "closestLocations": [
      "Strathdon",
      "Insch",
      "Banchory",
      "Aboyne",
      "Inverurie"
    ]
  },
  {
    "name": "Clackmannanshire",
    "lat": 56.1,
    "lng": -3.8,
    "closestLocations": [
      "Clackmannan",
      "Alloa",
      "Menstrie",
      "Tillicoultry",
      "Alva"
    ]
  },
  {
    "name": "Alloa",
    "lat": 56.1128,
    "lng": -3.7908,
    "closestLocations": [
      "Clackmannanshire",
      "Tillicoultry",
      "Alva",
      "Clackmannan",
      "Menstrie"
    ]
  },
  {
    "name": "Alness",
    "lat": 57.6881,
    "lng": -4.2508,
    "closestLocations": [
      "Invergordon",
      "Fortrose",
      "Cromarty",
      "Dingwall",
      "Tain, Ross-Shire"
    ]
  },
  {
    "name": "Alva",
    "lat": 56.1388,
    "lng": -3.7925,
    "closestLocations": [
      "Alloa",
      "Tillicoultry",
      "Clackmannanshire",
      "Clackmannan",
      "Menstrie"
    ]
  },
  {
    "name": "Dumfriesshire",
    "lat": 54.9667,
    "lng": -3.3667,
    "closestLocations": [
      "Annan",
      "Dumfries, Dumfriesshire",
      "Gretna",
      "Maryport",
      "Carlisle"
    ]
  },
  {
    "name": "Annan",
    "lat": 54.99,
    "lng": -3.25,
    "closestLocations": [
      "Dumfriesshire",
      "Gretna",
      "Carlisle",
      "Dumfries, Dumfriesshire",
      "Langholm"
    ]
  },
  {
    "name": "Fife",
    "lat": 56.0667,
    "lng": -3.1667,
    "closestLocations": [
      "Burntisland",
      "Kirkcaldy",
      "Lochgelly",
      "Kelty",
      "Cowdenbeath"
    ]
  },
  {
    "name": "Anstruther",
    "lat": 56.2173,
    "lng": -2.7074,
    "closestLocations": [
      "St. Andrews, Fife",
      "North Berwick",
      "Leven, Fife",
      "Cupar",
      "Gullane"
    ]
  },
  {
    "name": "Appin",
    "lat": 56.4746,
    "lng": -5.1925,
    "closestLocations": [
      "Taynuilt",
      "Dalmally",
      "Oban",
      "Ballachulish",
      "Kinlochleven"
    ]
  },
  {
    "name": "Angus",
    "lat": 56.6333,
    "lng": -2.9,
    "closestLocations": [
      "Forfar",
      "Kirriemuir",
      "Brechin",
      "Dundee",
      "Newport-On-Tay"
    ]
  },
  {
    "name": "Arbroath",
    "lat": 56.558,
    "lng": -2.5885,
    "closestLocations": [
      "Carnoustie",
      "Montrose",
      "Brechin",
      "Tayport",
      "Forfar"
    ]
  },
  {
    "name": "Sutherland",
    "lat": 58.0628,
    "lng": -4.2,
    "closestLocations": [
      "Lairg",
      "Rogart",
      "Golspie",
      "Ardgay",
      "Brora"
    ]
  },
  {
    "name": "Ardgay",
    "lat": 57.8915,
    "lng": -4.2306,
    "closestLocations": [
      "Rogart",
      "Dornoch",
      "Tain, Ross-Shire",
      "Golspie",
      "Lairg"
    ]
  },
  {
    "name": "Ayrshire",
    "lat": 55.5,
    "lng": -4.5,
    "closestLocations": [
      "Prestwick, Ayrshire",
      "Ayr, Ayrshire",
      "Troon, Ayrshire",
      "Kilmarnock",
      "Mauchline"
    ]
  },
  {
    "name": "Ardrossan",
    "lat": 55.6384,
    "lng": -4.8156,
    "closestLocations": [
      "Stevenston",
      "Saltcoats, Ayrshire",
      "West Kilbride, Ayrshire",
      "Kilwinning",
      "Irvine, Ayrshire"
    ]
  },
  {
    "name": "Inverness-Shire",
    "lat": 57.3833,
    "lng": -4.1333,
    "closestLocations": [
      "Inverness",
      "Carrbridge",
      "Avoch",
      "Munlochy",
      "Muir Of Ord"
    ]
  },
  {
    "name": "Arisaig",
    "lat": 56.93,
    "lng": -5.8232,
    "closestLocations": [
      "Lochailort",
      "Isle of Skye",
      "Mallaig",
      "Isle of Canna",
      "Isle of Eigg"
    ]
  },
  {
    "name": "Arrochar",
    "lat": 56.1542,
    "lng": -4.707,
    "closestLocations": [
      "Helensburgh",
      "Alexandria, Dunbartonshire",
      "Greenock",
      "Gourock",
      "Dumbarton"
    ]
  },
  {
    "name": "Auchterarder",
    "lat": 56.3041,
    "lng": -3.7246,
    "closestLocations": [
      "Crieff",
      "Alva",
      "Dunblane",
      "Perth, Perthshire",
      "Tillicoultry"
    ]
  },
  {
    "name": "Aviemore",
    "lat": 57.1954,
    "lng": -3.8302,
    "closestLocations": [
      "Boat Of Garten",
      "Nethy Bridge",
      "Avoch",
      "Grantown-On-Spey",
      "Kingussie"
    ]
  },
  {
    "name": "Avoch",
    "lat": 57.25,
    "lng": -4.0925,
    "closestLocations": [
      "Carrbridge",
      "Inverness-Shire",
      "Aviemore",
      "Kingussie",
      "Boat Of Garten"
    ]
  },
  {
    "name": "Ayr, Ayrshire",
    "lat": 55.46,
    "lng": -4.6299,
    "closestLocations": [
      "Prestwick, Ayrshire",
      "Troon, Ayrshire",
      "Ayrshire",
      "Maybole",
      "Irvine, Ayrshire"
    ]
  },
  {
    "name": "Midlothian",
    "lat": 55.8,
    "lng": -3.1,
    "closestLocations": [
      "Gorebridge",
      "Rosewell",
      "Pathhead, Midlothian",
      "Bonnyrigg",
      "Roslin"
    ]
  },
  {
    "name": "Balerno",
    "lat": 55.9038,
    "lng": -3.3264,
    "closestLocations": [
      "Currie",
      "Juniper Green",
      "Kirkliston",
      "Newbridge, Midlothian",
      "Kirknewton, Midlothian"
    ]
  },
  {
    "name": "Ballachulish",
    "lat": 56.6854,
    "lng": -4.95,
    "closestLocations": [
      "Kinlochleven",
      "Fort William",
      "Spean Bridge",
      "Roy Bridge",
      "Corrour"
    ]
  },
  {
    "name": "Ballater",
    "lat": 57.0587,
    "lng": -3.2294,
    "closestLocations": [
      "Aboyne",
      "Strathdon",
      "Grantown-On-Spey",
      "Nethy Bridge",
      "Alford, Aberdeenshire"
    ]
  },
  {
    "name": "Ballindalloch",
    "lat": 57.4892,
    "lng": -3.2156,
    "closestLocations": [
      "Aberlour",
      "Banffshire",
      "Keith",
      "Fochabers",
      "Buckie"
    ]
  },
  {
    "name": "Kincardineshire",
    "lat": 56.9781,
    "lng": -2.3485,
    "closestLocations": [
      "Stonehaven",
      "Banchory",
      "Peterculter",
      "Milltimber",
      "Westhill, Aberdeenshire"
    ]
  },
  {
    "name": "Banchory",
    "lat": 57.05,
    "lng": -2.4905,
    "closestLocations": [
      "Kincardineshire",
      "Alford, Aberdeenshire",
      "Peterculter",
      "Milltimber",
      "Stonehaven"
    ]
  },
  {
    "name": "Banff",
    "lat": 57.6635,
    "lng": -2.5177,
    "closestLocations": [
      "Macduff",
      "Turriff",
      "Huntly",
      "Keith",
      "Fraserburgh"
    ]
  },
  {
    "name": "West Lothian",
    "lat": 55.9083,
    "lng": -3.5825,
    "closestLocations": [
      "Bathgate",
      "West Calder",
      "Livingston",
      "Broxburn",
      "Linlithgow"
    ]
  },
  {
    "name": "Bathgate",
    "lat": 55.8979,
    "lng": -3.6091,
    "closestLocations": [
      "West Lothian",
      "West Calder",
      "Livingston",
      "Broxburn",
      "Linlithgow"
    ]
  },
  {
    "name": "Beauly",
    "lat": 57.4758,
    "lng": -4.4711,
    "closestLocations": [
      "Muir Of Ord",
      "Strathpeffer",
      "Dingwall",
      "Munlochy",
      "Inverness"
    ]
  },
  {
    "name": "Beith",
    "lat": 55.748,
    "lng": -4.6344,
    "closestLocations": [
      "Kilbirnie",
      "Lochwinnoch",
      "Dalry, Ayrshire",
      "Kilwinning",
      "Johnstone"
    ]
  },
  {
    "name": "Bellshill, Lanarkshire",
    "lat": 55.8119,
    "lng": -4.0219,
    "closestLocations": [
      "Motherwell",
      "Hamilton, Lanarkshire",
      "Coatbridge",
      "Airdrie",
      "Larkhall, Lanarkshire"
    ]
  },
  {
    "name": "Caithness",
    "lat": 58.6455,
    "lng": -3.1504,
    "closestLocations": [
      "Berriedale",
      "Thurso",
      "Wick, Caithness",
      "Halkirk",
      "Latheron"
    ]
  },
  {
    "name": "Berriedale",
    "lat": 58.592,
    "lng": -3.0631,
    "closestLocations": [
      "Caithness",
      "Wick, Caithness",
      "Thurso",
      "Latheron",
      "Halkirk"
    ]
  },
  {
    "name": "Biggar, Lanarkshire",
    "lat": 55.6041,
    "lng": -3.3826,
    "closestLocations": [
      "West Linton",
      "Peebles",
      "Peeblesshire",
      "Innerleithen",
      "Lanark"
    ]
  },
  {
    "name": "Renfrewshire",
    "lat": 55.851,
    "lng": -4.4414,
    "closestLocations": [
      "Paisley",
      "Johnstone",
      "Bridge Of Weir",
      "Erskine",
      "Renfrew"
    ]
  },
  {
    "name": "Bishopton, Renfrewshire",
    "lat": 55.9183,
    "lng": -4.5261,
    "closestLocations": [
      "Erskine",
      "Dumbarton",
      "Kilmacolm",
      "Dunbartonshire",
      "Bridge Of Weir"
    ]
  },
  {
    "name": "Blairgowrie",
    "lat": 56.5807,
    "lng": -3.3365,
    "closestLocations": [
      "Dunkeld",
      "Perth, Perthshire",
      "Kirriemuir",
      "Perthshire",
      "Newport-On-Tay"
    ]
  },
  {
    "name": "Boat Of Garten",
    "lat": 57.2932,
    "lng": -3.7942,
    "closestLocations": [
      "Nethy Bridge",
      "Grantown-On-Spey",
      "Aviemore",
      "Avoch",
      "Inverness-Shire"
    ]
  },
  {
    "name": "Bo'ness",
    "lat": 56.0131,
    "lng": -3.6103,
    "closestLocations": [
      "Dollar",
      "Linlithgow",
      "Grangemouth",
      "Broxburn",
      "Falkirk"
    ]
  },
  {
    "name": "Stirlingshire",
    "lat": 56.0948,
    "lng": -4.0592,
    "closestLocations": [
      "Stirling",
      "Doune, Perthshire",
      "Bonnybridge",
      "Dunblane",
      "Menstrie"
    ]
  },
  {
    "name": "Bonnybridge",
    "lat": 56.0104,
    "lng": -3.93,
    "closestLocations": [
      "Denny",
      "Larbert",
      "Falkirk",
      "Menstrie",
      "Clackmannan"
    ]
  },
  {
    "name": "Bonnyrigg",
    "lat": 55.8403,
    "lng": -3.2005,
    "closestLocations": [
      "Penicuik",
      "Roslin",
      "Rosewell",
      "Loanhead, Midlothian",
      "Lasswade"
    ]
  },
  {
    "name": "Brechin",
    "lat": 56.7242,
    "lng": -2.6361,
    "closestLocations": [
      "Montrose",
      "Laurencekirk",
      "Forfar",
      "Arbroath",
      "Angus"
    ]
  },
  {
    "name": "Bridge Of Orchy",
    "lat": 56.5297,
    "lng": -4.6487,
    "closestLocations": [
      "Crianlarich",
      "Ballachulish",
      "Kinlochleven",
      "Lochearnhead",
      "Scotland"
    ]
  },
  {
    "name": "Bridge Of Weir",
    "lat": 55.857,
    "lng": -4.5253,
    "closestLocations": [
      "Johnstone",
      "Erskine",
      "Renfrewshire",
      "Paisley",
      "Kilmacolm"
    ]
  },
  {
    "name": "Brora",
    "lat": 58.0671,
    "lng": -3.8496,
    "closestLocations": [
      "Golspie",
      "Sutherland",
      "Dornoch",
      "Rogart",
      "Helmsdale"
    ]
  },
  {
    "name": "Broxburn",
    "lat": 55.9423,
    "lng": -3.4901,
    "closestLocations": [
      "Livingston",
      "Newbridge, Midlothian",
      "West Calder",
      "West Lothian",
      "Kirknewton, Midlothian"
    ]
  },
  {
    "name": "Buckie",
    "lat": 57.6336,
    "lng": -3.0854,
    "closestLocations": [
      "Fochabers",
      "Banffshire",
      "Lossiemouth",
      "Keith",
      "Elgin"
    ]
  },
  {
    "name": "Burntisland",
    "lat": 56.0453,
    "lng": -3.1871,
    "closestLocations": [
      "Fife",
      "Kirkcaldy",
      "Lochgelly",
      "Edinburgh",
      "Kelty"
    ]
  },
  {
    "name": "Cairndow",
    "lat": 56.063,
    "lng": -5.1157,
    "closestLocations": [
      "Tighnabruaich",
      "Dunoon",
      "Inveraray",
      "Lochgilphead",
      "Colintraive"
    ]
  },
  {
    "name": "Callander",
    "lat": 56.2501,
    "lng": -4.2171,
    "closestLocations": [
      "Doune, Perthshire",
      "Lochearnhead",
      "Dunblane",
      "Stirlingshire",
      "Killin"
    ]
  },
  {
    "name": "Campbeltown",
    "lat": 55.4292,
    "lng": -5.6034,
    "closestLocations": [
      "Isle of Arran",
      "Isle of Gigha",
      "Isle of Islay",
      "Ballycastle",
      "Tarbert, Argyll"
    ]
  },
  {
    "name": "Canonbie",
    "lat": 54.9794,
    "lng": -2.7275,
    "closestLocations": [
      "Brampton",
      "Wigton",
      "Carlisle",
      "Haltwhistle",
      "Gretna"
    ]
  },
  {
    "name": "Carluke",
    "lat": 55.7406,
    "lng": -3.8354,
    "closestLocations": [
      "Lanarkshire",
      "Wishaw, Lanarkshire",
      "Lanark",
      "Larkhall, Lanarkshire",
      "Airdrie"
    ]
  },
  {
    "name": "Carnoustie",
    "lat": 56.4541,
    "lng": -2.7114,
    "closestLocations": [
      "Tayport",
      "Arbroath",
      "St. Andrews, Fife",
      "Dundee",
      "Newport-On-Tay"
    ]
  },
  {
    "name": "Carrbridge",
    "lat": 57.2747,
    "lng": -4.2006,
    "closestLocations": [
      "Avoch",
      "Inverness-Shire",
      "Kingussie",
      "Inverness",
      "Aviemore"
    ]
  },
  {
    "name": "Kirkcudbrightshire",
    "lat": 54.8167,
    "lng": -4.0833,
    "closestLocations": [
      "Kirkcudbright",
      "Castle Douglas",
      "Dalbeattie",
      "Wigtownshire",
      "Newton Stewart"
    ]
  },
  {
    "name": "Castle Douglas",
    "lat": 54.8655,
    "lng": -3.9935,
    "closestLocations": [
      "Kirkcudbright",
      "Kirkcudbrightshire",
      "Dalbeattie",
      "Newton Stewart",
      "Wigtownshire"
    ]
  },
  {
    "name": "Clackmannan",
    "lat": 56.0863,
    "lng": -3.8016,
    "closestLocations": [
      "Clackmannanshire",
      "Menstrie",
      "Alloa",
      "Tillicoultry",
      "Alva"
    ]
  },
  {
    "name": "Clydebank",
    "lat": 55.9034,
    "lng": -4.3968,
    "closestLocations": [
      "Renfrew",
      "Erskine",
      "Dunbartonshire",
      "Renfrewshire",
      "Paisley"
    ]
  },
  {
    "name": "Coatbridge",
    "lat": 55.8602,
    "lng": -4.0241,
    "closestLocations": [
      "Bellshill, Lanarkshire",
      "Motherwell",
      "Hamilton, Lanarkshire",
      "Airdrie",
      "Wishaw, Lanarkshire"
    ]
  },
  {
    "name": "Berwickshire",
    "lat": 55.8661,
    "lng": -2.2269,
    "closestLocations": [
      "Eyemouth",
      "Duns",
      "Cockburnspath",
      "Berwick-Upon-Tweed",
      "Gordon, Berwickshire"
    ]
  },
  {
    "name": "Cockburnspath",
    "lat": 55.8905,
    "lng": -2.4657,
    "closestLocations": [
      "Dunbar",
      "Duns",
      "Berwickshire",
      "Gordon, Berwickshire",
      "East Lothian"
    ]
  },
  {
    "name": "Coldstream",
    "lat": 55.6031,
    "lng": -2.4605,
    "closestLocations": [
      "Kelso",
      "Roxburghshire",
      "Earlston, Berwickshire",
      "Jedburgh",
      "Gordon, Berwickshire"
    ]
  },
  {
    "name": "Colintraive",
    "lat": 55.8685,
    "lng": -5.1865,
    "closestLocations": [
      "Tarbert, Argyll",
      "Isle of Bute",
      "Dunoon",
      "Skelmorlie",
      "Wemyss Bay"
    ]
  },
  {
    "name": "Corrour",
    "lat": 56.889,
    "lng": -4.8261,
    "closestLocations": [
      "Spean Bridge",
      "Roy Bridge",
      "Fort William",
      "Kinlochleven",
      "Ballachulish"
    ]
  },
  {
    "name": "Cowdenbeath",
    "lat": 56.0662,
    "lng": -3.367,
    "closestLocations": [
      "Inverkeithing",
      "Dunfermline",
      "Kelty",
      "South Queensferry",
      "Lochgelly"
    ]
  },
  {
    "name": "Crianlarich",
    "lat": 56.3844,
    "lng": -4.7063,
    "closestLocations": [
      "Bridge Of Orchy",
      "Lochearnhead",
      "Arrochar",
      "Inveraray",
      "Killin"
    ]
  },
  {
    "name": "Crieff",
    "lat": 56.371,
    "lng": -3.835,
    "closestLocations": [
      "Auchterarder",
      "Dunblane",
      "Killin",
      "Dunkeld",
      "Perth, Perthshire"
    ]
  },
  {
    "name": "Cromarty",
    "lat": 57.669,
    "lng": -4.0404,
    "closestLocations": [
      "Invergordon",
      "Fortrose",
      "Alness",
      "Nairn",
      "Nairnshire"
    ]
  },
  {
    "name": "Cumnock",
    "lat": 55.4528,
    "lng": -3.9731,
    "closestLocations": [
      "Sanquhar, Dumfriesshire",
      "Darvel",
      "Thornhill, Dumfriesshire",
      "Strathaven",
      "Lanark"
    ]
  },
  {
    "name": "Cupar",
    "lat": 56.3163,
    "lng": -2.9932,
    "closestLocations": [
      "St. Andrews, Fife",
      "Leven, Fife",
      "Dundee",
      "Newport-On-Tay",
      "Glenrothes"
    ]
  },
  {
    "name": "Currie",
    "lat": 55.9114,
    "lng": -3.3177,
    "closestLocations": [
      "Balerno",
      "Juniper Green",
      "Kirkliston",
      "Newbridge, Midlothian",
      "Kirknewton, Midlothian"
    ]
  },
  {
    "name": "Dalbeattie",
    "lat": 54.9568,
    "lng": -3.9251,
    "closestLocations": [
      "Castle Douglas",
      "Kirkcudbright",
      "Kirkcudbrightshire",
      "Newton Stewart",
      "Dumfries, Dumfriesshire"
    ]
  },
  {
    "name": "Dalkeith",
    "lat": 55.8951,
    "lng": -3.0998,
    "closestLocations": [
      "Lasswade",
      "Loanhead, Midlothian",
      "Pathhead, Midlothian",
      "Gorebridge",
      "Musselburgh"
    ]
  },
  {
    "name": "Dalmally",
    "lat": 56.4281,
    "lng": -5.2119,
    "closestLocations": [
      "Appin",
      "Taynuilt",
      "Oban",
      "Inveraray",
      "Argyll"
    ]
  },
  {
    "name": "Dalry, Ayrshire",
    "lat": 55.7031,
    "lng": -4.5644,
    "closestLocations": [
      "Beith",
      "Kilbirnie",
      "Lochwinnoch",
      "Kilwinning",
      "Kilmarnock"
    ]
  },
  {
    "name": "Dalwhinnie",
    "lat": 56.85,
    "lng": -4.09,
    "closestLocations": [
      "Newtonmore",
      "Kingussie",
      "Pitlochry",
      "Aberfeldy",
      "Perthshire"
    ]
  },
  {
    "name": "Darvel",
    "lat": 55.5992,
    "lng": -4.1315,
    "closestLocations": [
      "Strathaven",
      "Mauchline",
      "Galston",
      "Lanarkshire",
      "Newmilns"
    ]
  },
  {
    "name": "Denny",
    "lat": 56.0146,
    "lng": -3.831,
    "closestLocations": [
      "Larbert",
      "Falkirk",
      "Bonnybridge",
      "Menstrie",
      "Grangemouth"
    ]
  },
  {
    "name": "Dingwall",
    "lat": 57.5991,
    "lng": -4.4152,
    "closestLocations": [
      "Strathpeffer",
      "Munlochy",
      "Muir Of Ord",
      "Ross-Shire",
      "Alness"
    ]
  },
  {
    "name": "Dollar",
    "lat": 56.0087,
    "lng": -3.6234,
    "closestLocations": [
      "Bo'ness",
      "Linlithgow",
      "Grangemouth",
      "Falkirk",
      "Broxburn"
    ]
  },
  {
    "name": "Dornoch",
    "lat": 57.8823,
    "lng": -4.0297,
    "closestLocations": [
      "Tain, Ross-Shire",
      "Golspie",
      "Ardgay",
      "Rogart",
      "Sutherland"
    ]
  },
  {
    "name": "Doune, Perthshire",
    "lat": 56.1747,
    "lng": -4.0444,
    "closestLocations": [
      "Dunblane",
      "Stirlingshire",
      "Stirling",
      "Callander",
      "Alva"
    ]
  },
  {
    "name": "Dumbarton",
    "lat": 55.9439,
    "lng": -4.5704,
    "closestLocations": [
      "Alexandria, Dunbartonshire",
      "Bishopton, Renfrewshire",
      "Port Glasgow",
      "Kilmacolm",
      "Dunbartonshire"
    ]
  },
  {
    "name": "Dumfries, Dumfriesshire",
    "lat": 55.067,
    "lng": -3.6058,
    "closestLocations": [
      "Dumfriesshire",
      "Dalbeattie",
      "Moffat",
      "Annan",
      "Thornhill, Dumfriesshire"
    ]
  },
  {
    "name": "East Lothian",
    "lat": 55.9258,
    "lng": -2.7714,
    "closestLocations": [
      "Haddington, East Lothian",
      "East Linton",
      "Humbie",
      "Longniddry",
      "Tranent"
    ]
  },
  {
    "name": "Dunbar",
    "lat": 56.0022,
    "lng": -2.5164,
    "closestLocations": [
      "Cockburnspath",
      "Haddington, East Lothian",
      "East Lothian",
      "East Linton",
      "Gullane"
    ]
  },
  {
    "name": "Dunbeath",
    "lat": 58.3384,
    "lng": -3.3206,
    "closestLocations": [
      "Lybster",
      "Latheron",
      "Wick, Caithness",
      "Halkirk",
      "Helmsdale"
    ]
  },
  {
    "name": "Dunblane",
    "lat": 56.1961,
    "lng": -3.9665,
    "closestLocations": [
      "Doune, Perthshire",
      "Stirling",
      "Alva",
      "Stirlingshire",
      "Alloa"
    ]
  },
  {
    "name": "Dundee",
    "lat": 56.462,
    "lng": -2.9707,
    "closestLocations": [
      "Newport-On-Tay",
      "Tayport",
      "Carnoustie",
      "Cupar",
      "St. Andrews, Fife"
    ]
  },
  {
    "name": "Dunfermline",
    "lat": 56.0662,
    "lng": -3.4545,
    "closestLocations": [
      "Inverkeithing",
      "Cowdenbeath",
      "South Queensferry",
      "Bo'ness",
      "Dollar"
    ]
  },
  {
    "name": "Dunkeld",
    "lat": 56.5694,
    "lng": -3.6601,
    "closestLocations": [
      "Perthshire",
      "Aberfeldy",
      "Pitlochry",
      "Blairgowrie",
      "Perth, Perthshire"
    ]
  },
  {
    "name": "Dunoon",
    "lat": 55.9464,
    "lng": -4.9153,
    "closestLocations": [
      "Skelmorlie",
      "Wemyss Bay",
      "Gourock",
      "Helensburgh",
      "Greenock"
    ]
  },
  {
    "name": "Duns",
    "lat": 55.7775,
    "lng": -2.3573,
    "closestLocations": [
      "Gordon, Berwickshire",
      "Berwickshire",
      "Cockburnspath",
      "Eyemouth",
      "Kelso"
    ]
  },
  {
    "name": "Earlston, Berwickshire",
    "lat": 55.5956,
    "lng": -2.6177,
    "closestLocations": [
      "Roxburghshire",
      "Melrose",
      "Coldstream",
      "Walkerburn",
      "Kelso"
    ]
  },
  {
    "name": "East Linton",
    "lat": 55.9562,
    "lng": -2.8169,
    "closestLocations": [
      "Haddington, East Lothian",
      "East Lothian",
      "Longniddry",
      "Gullane",
      "Tranent"
    ]
  },
  {
    "name": "Edinburgh",
    "lat": 55.9533,
    "lng": -3.1883,
    "closestLocations": [
      "Musselburgh",
      "Dalkeith",
      "Juniper Green",
      "Currie",
      "Loanhead, Midlothian"
    ]
  },
  {
    "name": "Morayshire",
    "lat": 57.6167,
    "lng": -3.5167,
    "closestLocations": [
      "Forres, Morayshire",
      "Elgin",
      "Lossiemouth",
      "Nairn",
      "Nairnshire"
    ]
  },
  {
    "name": "Elgin",
    "lat": 57.6456,
    "lng": -3.3139,
    "closestLocations": [
      "Lossiemouth",
      "Banffshire",
      "Morayshire",
      "Fochabers",
      "Buckie"
    ]
  },
  {
    "name": "Ellon",
    "lat": 57.3686,
    "lng": -2.0632,
    "closestLocations": [
      "Inverurie",
      "Peterhead",
      "Aberdeen",
      "Aberdeenshire",
      "Westhill, Aberdeenshire"
    ]
  },
  {
    "name": "Erskine",
    "lat": 55.8933,
    "lng": -4.486,
    "closestLocations": [
      "Bishopton, Renfrewshire",
      "Bridge Of Weir",
      "Renfrewshire",
      "Clydebank",
      "Renfrew"
    ]
  },
  {
    "name": "Eyemouth",
    "lat": 55.8647,
    "lng": -2.0886,
    "closestLocations": [
      "Berwickshire",
      "Berwick-Upon-Tweed",
      "Duns",
      "Cockburnspath",
      "Mindrum"
    ]
  },
  {
    "name": "Falkirk",
    "lat": 56.0015,
    "lng": -3.7857,
    "closestLocations": [
      "Denny",
      "Larbert",
      "Grangemouth",
      "Menstrie",
      "Bonnybridge"
    ]
  },
  {
    "name": "Fochabers",
    "lat": 57.6317,
    "lng": -3.0884,
    "closestLocations": [
      "Buckie",
      "Banffshire",
      "Lossiemouth",
      "Keith",
      "Elgin"
    ]
  },
  {
    "name": "Forfar",
    "lat": 56.6362,
    "lng": -2.8951,
    "closestLocations": [
      "Angus",
      "Kirriemuir",
      "Brechin",
      "Dundee",
      "Newport-On-Tay"
    ]
  },
  {
    "name": "Forres, Morayshire",
    "lat": 57.6363,
    "lng": -3.5975,
    "closestLocations": [
      "Morayshire",
      "Elgin",
      "Nairn",
      "Nairnshire",
      "Lossiemouth"
    ]
  },
  {
    "name": "Forsinard",
    "lat": 58.3658,
    "lng": -4.1811,
    "closestLocations": [
      "Kinbrace",
      "Sutherland",
      "Lairg",
      "Brora",
      "Halkirk"
    ]
  },
  {
    "name": "Fort Augustus",
    "lat": 57.201,
    "lng": -4.7242,
    "closestLocations": [
      "Invergarry",
      "Carrbridge",
      "Beauly",
      "Corrour",
      "Roy Bridge"
    ]
  },
  {
    "name": "Fort William",
    "lat": 56.8206,
    "lng": -5.1093,
    "closestLocations": [
      "Roy Bridge",
      "Spean Bridge",
      "Kinlochleven",
      "Ballachulish",
      "Corrour"
    ]
  },
  {
    "name": "Fortrose",
    "lat": 57.5833,
    "lng": -4.1781,
    "closestLocations": [
      "Munlochy",
      "Invergordon",
      "Inverness",
      "Alness",
      "Cromarty"
    ]
  },
  {
    "name": "Fraserburgh",
    "lat": 57.69,
    "lng": -2.0041,
    "closestLocations": [
      "Peterhead",
      "Macduff",
      "Banff",
      "Turriff",
      "Ellon"
    ]
  },
  {
    "name": "Gairloch",
    "lat": 57.6884,
    "lng": -5.713,
    "closestLocations": [
      "Garve",
      "Achnasheen",
      "Strathcarron",
      "Plockton",
      "Strome Ferry"
    ]
  },
  {
    "name": "Selkirkshire",
    "lat": 55.563,
    "lng": -2.9437,
    "closestLocations": [
      "Selkirk",
      "Heriot",
      "Galashiels",
      "Walkerburn",
      "Innerleithen"
    ]
  },
  {
    "name": "Galashiels",
    "lat": 55.6164,
    "lng": -2.8033,
    "closestLocations": [
      "Walkerburn",
      "Melrose",
      "Lauder",
      "Selkirk",
      "Heriot"
    ]
  },
  {
    "name": "Galston",
    "lat": 55.6231,
    "lng": -4.3756,
    "closestLocations": [
      "Newmilns",
      "Mauchline",
      "Kilmarnock",
      "Dalry, Ayrshire",
      "Darvel"
    ]
  },
  {
    "name": "Garve",
    "lat": 57.67,
    "lng": -5.2118,
    "closestLocations": [
      "Achnasheen",
      "Gairloch",
      "Ross-Shire",
      "Strathcarron",
      "Strome Ferry"
    ]
  },
  {
    "name": "Girvan",
    "lat": 55.285,
    "lng": -4.8625,
    "closestLocations": [
      "Maybole",
      "Ayr, Ayrshire",
      "Prestwick, Ayrshire",
      "Troon, Ayrshire",
      "Isle of Arran"
    ]
  },
  {
    "name": "Glasgow",
    "lat": 55.8642,
    "lng": -4.2518,
    "closestLocations": [
      "Renfrew",
      "Clydebank",
      "Paisley",
      "Renfrewshire",
      "Coatbridge"
    ]
  },
  {
    "name": "Glenfinnan",
    "lat": 56.8467,
    "lng": -5.4847,
    "closestLocations": [
      "Isle of Canna",
      "Lochailort",
      "Arisaig",
      "Fort William",
      "Isle of Skye"
    ]
  },
  {
    "name": "Glenrothes",
    "lat": 56.1985,
    "lng": -3.1584,
    "closestLocations": [
      "Leven, Fife",
      "Kirkcaldy",
      "Lochgelly",
      "Kelty",
      "Kinross-Shire"
    ]
  },
  {
    "name": "Golspie",
    "lat": 57.9667,
    "lng": -3.9675,
    "closestLocations": [
      "Dornoch",
      "Brora",
      "Rogart",
      "Sutherland",
      "Ardgay"
    ]
  },
  {
    "name": "Gordon, Berwickshire",
    "lat": 55.7495,
    "lng": -2.5381,
    "closestLocations": [
      "Roxburghshire",
      "Duns",
      "Cockburnspath",
      "Coldstream",
      "Lauder"
    ]
  },
  {
    "name": "Gorebridge",
    "lat": 55.8458,
    "lng": -3.0958,
    "closestLocations": [
      "Pathhead, Midlothian",
      "Lasswade",
      "Loanhead, Midlothian",
      "Midlothian",
      "Roslin"
    ]
  },
  {
    "name": "Gourock",
    "lat": 55.9508,
    "lng": -4.8116,
    "closestLocations": [
      "Greenock",
      "Skelmorlie",
      "Dunoon",
      "Wemyss Bay",
      "Helensburgh"
    ]
  },
  {
    "name": "Grangemouth",
    "lat": 56.0013,
    "lng": -3.709,
    "closestLocations": [
      "Falkirk",
      "Dollar",
      "Bo'ness",
      "Linlithgow",
      "Larbert"
    ]
  },
  {
    "name": "Grantown-On-Spey",
    "lat": 57.3142,
    "lng": -3.617,
    "closestLocations": [
      "Nethy Bridge",
      "Boat Of Garten",
      "Aviemore",
      "Avoch",
      "Aberlour"
    ]
  },
  {
    "name": "Greenock",
    "lat": 55.9506,
    "lng": -4.7111,
    "closestLocations": [
      "Port Glasgow",
      "Gourock",
      "Helensburgh",
      "Alexandria, Dunbartonshire",
      "Dumbarton"
    ]
  },
  {
    "name": "Gretna",
    "lat": 54.9862,
    "lng": -3.0571,
    "closestLocations": [
      "Annan",
      "Carlisle",
      "Wigton",
      "Langholm",
      "Dumfriesshire"
    ]
  },
  {
    "name": "Gullane",
    "lat": 56.0175,
    "lng": -2.8638,
    "closestLocations": [
      "North Berwick",
      "Longniddry",
      "East Linton",
      "Haddington, East Lothian",
      "Prestonpans"
    ]
  },
  {
    "name": "Haddington, East Lothian",
    "lat": 55.9514,
    "lng": -2.7761,
    "closestLocations": [
      "East Linton",
      "East Lothian",
      "Gullane",
      "Longniddry",
      "Tranent"
    ]
  },
  {
    "name": "Halkirk",
    "lat": 58.5458,
    "lng": -3.5964,
    "closestLocations": [
      "Thurso",
      "Latheron",
      "Dunbeath",
      "Caithness",
      "Lybster"
    ]
  },
  {
    "name": "Hamilton, Lanarkshire",
    "lat": 55.7787,
    "lng": -4.0361,
    "closestLocations": [
      "Motherwell",
      "Airdrie",
      "Bellshill, Lanarkshire",
      "Larkhall, Lanarkshire",
      "Wishaw, Lanarkshire"
    ]
  },
  {
    "name": "Roxburghshire",
    "lat": 55.65,
    "lng": -2.58,
    "closestLocations": [
      "Earlston, Berwickshire",
      "Coldstream",
      "Kelso",
      "Melrose",
      "Gordon, Berwickshire"
    ]
  },
  {
    "name": "Hawick",
    "lat": 55.4239,
    "lng": -2.7834,
    "closestLocations": [
      "Selkirk",
      "Jedburgh",
      "Selkirkshire",
      "Newcastleton",
      "Melrose"
    ]
  },
  {
    "name": "Helensburgh",
    "lat": 56.0056,
    "lng": -4.7493,
    "closestLocations": [
      "Greenock",
      "Gourock",
      "Alexandria, Dunbartonshire",
      "Port Glasgow",
      "Dunoon"
    ]
  },
  {
    "name": "Helmsdale",
    "lat": 58.0824,
    "lng": -3.427,
    "closestLocations": [
      "Lybster",
      "Brora",
      "Dunbeath",
      "Golspie",
      "Latheron"
    ]
  },
  {
    "name": "Heriot",
    "lat": 55.6533,
    "lng": -2.9447,
    "closestLocations": [
      "Innerleithen",
      "Galashiels",
      "Selkirkshire",
      "Walkerburn",
      "Lauder"
    ]
  },
  {
    "name": "Humbie",
    "lat": 55.884,
    "lng": -2.9127,
    "closestLocations": [
      "Tranent",
      "Prestonpans",
      "East Lothian",
      "East Linton",
      "Pathhead, Midlothian"
    ]
  },
  {
    "name": "Huntly",
    "lat": 57.4519,
    "lng": -2.7905,
    "closestLocations": [
      "Keith",
      "Insch",
      "Turriff",
      "Aberlour",
      "Ballindalloch"
    ]
  },
  {
    "name": "Peeblesshire",
    "lat": 55.6167,
    "lng": -3.1333,
    "closestLocations": [
      "Peebles",
      "Innerleithen",
      "West Linton",
      "Heriot",
      "Selkirkshire"
    ]
  },
  {
    "name": "Innerleithen",
    "lat": 55.6464,
    "lng": -3.0322,
    "closestLocations": [
      "Heriot",
      "Peeblesshire",
      "Peebles",
      "Selkirkshire",
      "Galashiels"
    ]
  },
  {
    "name": "Insch",
    "lat": 57.2797,
    "lng": -2.6401,
    "closestLocations": [
      "Alford, Aberdeenshire",
      "Strathdon",
      "Inverurie",
      "Huntly",
      "Banchory"
    ]
  },
  {
    "name": "Inveraray",
    "lat": 56.2315,
    "lng": -5.0867,
    "closestLocations": [
      "Cairndow",
      "Dalmally",
      "Tighnabruaich",
      "Arrochar",
      "Argyll"
    ]
  },
  {
    "name": "Invergarry",
    "lat": 57.2293,
    "lng": -4.7003,
    "closestLocations": [
      "Fort Augustus",
      "Carrbridge",
      "Beauly",
      "Muir Of Ord",
      "Avoch"
    ]
  },
  {
    "name": "Invergordon",
    "lat": 57.6883,
    "lng": -4.2245,
    "closestLocations": [
      "Alness",
      "Cromarty",
      "Fortrose",
      "Tain, Ross-Shire",
      "Dingwall"
    ]
  },
  {
    "name": "Inverkeithing",
    "lat": 56.0583,
    "lng": -3.3946,
    "closestLocations": [
      "Cowdenbeath",
      "Dunfermline",
      "South Queensferry",
      "Kelty",
      "Lochgelly"
    ]
  },
  {
    "name": "Inverness",
    "lat": 57.4778,
    "lng": -4.2247,
    "closestLocations": [
      "Munlochy",
      "Inverness-Shire",
      "Fortrose",
      "Muir Of Ord",
      "Beauly"
    ]
  },
  {
    "name": "Inverurie",
    "lat": 57.2877,
    "lng": -2.3755,
    "closestLocations": [
      "Insch",
      "Westhill, Aberdeenshire",
      "Alford, Aberdeenshire",
      "Ellon",
      "Aberdeenshire"
    ]
  },
  {
    "name": "Irvine, Ayrshire",
    "lat": 55.6139,
    "lng": -4.6718,
    "closestLocations": [
      "Kilwinning",
      "Saltcoats, Ayrshire",
      "Stevenston",
      "Troon, Ayrshire",
      "Ardrossan"
    ]
  },
  {
    "name": "Isle of Arran",
    "lat": 55.4596,
    "lng": -5.2685,
    "closestLocations": [
      "Campbeltown",
      "Isle of Gigha",
      "Girvan",
      "Ardrossan",
      "West Kilbride, Ayrshire"
    ]
  },
  {
    "name": "Isle of Barra",
    "lat": 56.9495,
    "lng": -7.3575,
    "closestLocations": [
      "Isle of South Uist",
      "Isle of Benbecula",
      "Isle of Tiree",
      "Isle of North Uist",
      "Isle of Coll"
    ]
  },
  {
    "name": "Isle of Benbecula",
    "lat": 57.36,
    "lng": -7.3667,
    "closestLocations": [
      "Isle of South Uist",
      "Isle of North Uist",
      "Isle of Barra",
      "Isle of Harris",
      "Portree"
    ]
  },
  {
    "name": "Isle of Bute",
    "lat": 55.8269,
    "lng": -4.9033,
    "closestLocations": [
      "Largs",
      "Isle of Cumbrae",
      "Wemyss Bay",
      "Skelmorlie",
      "Dunoon"
    ]
  },
  {
    "name": "Isle of Canna",
    "lat": 56.8182,
    "lng": -5.6974,
    "closestLocations": [
      "Lochailort",
      "Glenfinnan",
      "Arisaig",
      "Isle of Skye",
      "Mallaig"
    ]
  },
  {
    "name": "Isle of Coll",
    "lat": 56.5772,
    "lng": -6.5895,
    "closestLocations": [
      "Isle of Tiree",
      "Isle of Iona",
      "Acharacle",
      "Isle of Eigg",
      "Isle of Mull"
    ]
  },
  {
    "name": "Isle of Colonsay",
    "lat": 56.0082,
    "lng": -6.2995,
    "closestLocations": [
      "Isle of Jura",
      "Isle of Islay",
      "Isle of Iona",
      "Lochgilphead",
      "Argyll"
    ]
  },
  {
    "name": "Isle of Cumbrae",
    "lat": 55.7575,
    "lng": -4.9103,
    "closestLocations": [
      "Largs",
      "West Kilbride, Ayrshire",
      "Isle of Bute",
      "Ardrossan",
      "Wemyss Bay"
    ]
  },
  {
    "name": "Isle of Eigg",
    "lat": 56.81,
    "lng": -6.0844,
    "closestLocations": [
      "Isle of Rum",
      "Arisaig",
      "Lochailort",
      "Isle of Mull",
      "Isle of Canna"
    ]
  },
  {
    "name": "Isle of Gigha",
    "lat": 55.6369,
    "lng": -5.6375,
    "closestLocations": [
      "Campbeltown",
      "Tarbert, Argyll",
      "Isle of Arran",
      "Isle of Jura",
      "Isle of Islay"
    ]
  },
  {
    "name": "Isle of Harris",
    "lat": 57.7222,
    "lng": -6.7433,
    "closestLocations": [
      "Isle of North Uist",
      "Portree",
      "Isle of Lewis",
      "Isle of Benbecula",
      "Stornoway"
    ]
  },
  {
    "name": "Isle of Iona",
    "lat": 56.463,
    "lng": -6.0722,
    "closestLocations": [
      "Acharacle",
      "Isle of Mull",
      "Isle of Coll",
      "Oban",
      "Isle of Eigg"
    ]
  },
  {
    "name": "Isle of Islay",
    "lat": 55.6833,
    "lng": -6.1667,
    "closestLocations": [
      "Isle of Jura",
      "Isle of Gigha",
      "Isle of Colonsay",
      "Campbeltown",
      "Tarbert, Argyll"
    ]
  },
  {
    "name": "Isle of Jura",
    "lat": 55.8677,
    "lng": -5.9531,
    "closestLocations": [
      "Isle of Islay",
      "Isle of Colonsay",
      "Isle of Gigha",
      "Tarbert, Argyll",
      "Lochgilphead"
    ]
  },
  {
    "name": "Isle of Lewis",
    "lat": 58.1951,
    "lng": -6.6439,
    "closestLocations": [
      "Stornoway",
      "Isle of Harris",
      "Gairloch"
    ]
  },
  {
    "name": "Isle of Mull",
    "lat": 56.6227,
    "lng": -5.9308,
    "closestLocations": [
      "Acharacle",
      "Isle of Iona",
      "Isle of Eigg",
      "Isle of Canna",
      "Lochailort"
    ]
  },
  {
    "name": "Isle of North Uist",
    "lat": 57.4953,
    "lng": -7.2914,
    "closestLocations": [
      "Isle of Benbecula",
      "Isle of South Uist",
      "Isle of Harris",
      "Isle of Barra",
      "Portree"
    ]
  },
  {
    "name": "Isle of Rum",
    "lat": 56.9663,
    "lng": -6.2335,
    "closestLocations": [
      "Isle of Eigg",
      "Mallaig",
      "Arisaig",
      "Isle of Skye",
      "Lochailort"
    ]
  },
  {
    "name": "Isle of Scalpay",
    "lat": 57.184,
    "lng": -5.868,
    "closestLocations": [
      "Kyle",
      "Plockton",
      "Mallaig",
      "Isle of Skye",
      "Strome Ferry"
    ]
  },
  {
    "name": "Isle of Skye",
    "lat": 57,
    "lng": -5.8,
    "closestLocations": [
      "Mallaig",
      "Arisaig",
      "Lochailort",
      "Isle of Scalpay",
      "Isle of Canna"
    ]
  },
  {
    "name": "Isle of South Uist",
    "lat": 57.2411,
    "lng": -7.277,
    "closestLocations": [
      "Isle of Benbecula",
      "Isle of North Uist",
      "Isle of Barra",
      "Isle of Harris",
      "Portree"
    ]
  },
  {
    "name": "Isle of Tiree",
    "lat": 56.5561,
    "lng": -6.8731,
    "closestLocations": [
      "Isle of Coll",
      "Isle of Iona",
      "Isle of Barra",
      "Isle of Eigg",
      "Acharacle"
    ]
  },
  {
    "name": "Jedburgh",
    "lat": 55.4797,
    "lng": -2.553,
    "closestLocations": [
      "Newcastleton",
      "Earlston, Berwickshire",
      "Coldstream",
      "Hawick",
      "Kelso"
    ]
  },
  {
    "name": "Johnstone",
    "lat": 55.8354,
    "lng": -4.5163,
    "closestLocations": [
      "Bridge Of Weir",
      "Renfrewshire",
      "Paisley",
      "Erskine",
      "Kilmacolm"
    ]
  },
  {
    "name": "Juniper Green",
    "lat": 55.9005,
    "lng": -3.2941,
    "closestLocations": [
      "Currie",
      "Balerno",
      "Kirkliston",
      "Penicuik",
      "Edinburgh"
    ]
  },
  {
    "name": "Keith",
    "lat": 57.547,
    "lng": -2.9473,
    "closestLocations": [
      "Fochabers",
      "Buckie",
      "Banffshire",
      "Huntly",
      "Ballindalloch"
    ]
  },
  {
    "name": "Kelso",
    "lat": 55.6058,
    "lng": -2.4311,
    "closestLocations": [
      "Coldstream",
      "Roxburghshire",
      "Earlston, Berwickshire",
      "Jedburgh",
      "Gordon, Berwickshire"
    ]
  },
  {
    "name": "Kelty",
    "lat": 56.1255,
    "lng": -3.2833,
    "closestLocations": [
      "Lochgelly",
      "Kirkcaldy",
      "Cowdenbeath",
      "Fife",
      "Inverkeithing"
    ]
  },
  {
    "name": "Kilbirnie",
    "lat": 55.7582,
    "lng": -4.6221,
    "closestLocations": [
      "Lochwinnoch",
      "Beith",
      "Dalry, Ayrshire",
      "Johnstone",
      "Bridge Of Weir"
    ]
  },
  {
    "name": "Killin",
    "lat": 56.4333,
    "lng": -4.2167,
    "closestLocations": [
      "Scotland",
      "Lochearnhead",
      "Callander",
      "Crieff",
      "Bridge Of Orchy"
    ]
  },
  {
    "name": "Kilmacolm",
    "lat": 55.8951,
    "lng": -4.6044,
    "closestLocations": [
      "Port Glasgow",
      "Bishopton, Renfrewshire",
      "Dumbarton",
      "Bridge Of Weir",
      "Erskine"
    ]
  },
  {
    "name": "Kilmarnock",
    "lat": 55.607,
    "lng": -4.4978,
    "closestLocations": [
      "Newmilns",
      "Galston",
      "Mauchline",
      "Irvine, Ayrshire",
      "Troon, Ayrshire"
    ]
  },
  {
    "name": "Kilwinning",
    "lat": 55.6456,
    "lng": -4.6851,
    "closestLocations": [
      "Saltcoats, Ayrshire",
      "Stevenston",
      "Irvine, Ayrshire",
      "Ardrossan",
      "Dalry, Ayrshire"
    ]
  },
  {
    "name": "Kinbrace",
    "lat": 58.286,
    "lng": -4.2569,
    "closestLocations": [
      "Forsinard",
      "Sutherland",
      "Lairg",
      "Brora",
      "Rogart"
    ]
  },
  {
    "name": "Kingussie",
    "lat": 57.0857,
    "lng": -4.0969,
    "closestLocations": [
      "Newtonmore",
      "Avoch",
      "Aviemore",
      "Carrbridge",
      "Dalwhinnie"
    ]
  },
  {
    "name": "Kinlochleven",
    "lat": 56.6864,
    "lng": -4.9527,
    "closestLocations": [
      "Ballachulish",
      "Fort William",
      "Spean Bridge",
      "Roy Bridge",
      "Corrour"
    ]
  },
  {
    "name": "Kinross-Shire",
    "lat": 56.2065,
    "lng": -3.3778,
    "closestLocations": [
      "Kinross",
      "Kelty",
      "Lochgelly",
      "Glenrothes",
      "Cowdenbeath"
    ]
  },
  {
    "name": "Kinross",
    "lat": 56.1972,
    "lng": -3.4133,
    "closestLocations": [
      "Kinross-Shire",
      "Kelty",
      "Lochgelly",
      "Dunfermline",
      "Cowdenbeath"
    ]
  },
  {
    "name": "Kirkcaldy",
    "lat": 56.121,
    "lng": -3.1667,
    "closestLocations": [
      "Lochgelly",
      "Fife",
      "Kelty",
      "Burntisland",
      "Glenrothes"
    ]
  },
  {
    "name": "Kirkcudbright",
    "lat": 54.8662,
    "lng": -4.0204,
    "closestLocations": [
      "Castle Douglas",
      "Kirkcudbrightshire",
      "Dalbeattie",
      "Newton Stewart",
      "Wigtownshire"
    ]
  },
  {
    "name": "Kirkliston",
    "lat": 55.8998,
    "lng": -3.38,
    "closestLocations": [
      "Balerno",
      "Currie",
      "Newbridge, Midlothian",
      "Kirknewton, Midlothian",
      "Juniper Green"
    ]
  },
  {
    "name": "Kirknewton, Midlothian",
    "lat": 55.8792,
    "lng": -3.4491,
    "closestLocations": [
      "Newbridge, Midlothian",
      "West Calder",
      "Livingston",
      "Kirkliston",
      "Broxburn"
    ]
  },
  {
    "name": "Orkney",
    "lat": 58.9883,
    "lng": -2.9633,
    "closestLocations": [
      "Orkney, Orkney",
      "Kirkwall",
      "Stromness",
      "Caithness",
      "Berriedale"
    ]
  },
  {
    "name": "Kirkwall",
    "lat": 58.9793,
    "lng": -2.9594,
    "closestLocations": [
      "Orkney",
      "Orkney, Orkney",
      "Stromness",
      "Caithness",
      "Berriedale"
    ]
  },
  {
    "name": "Kirriemuir",
    "lat": 56.6689,
    "lng": -3.0227,
    "closestLocations": [
      "Angus",
      "Forfar",
      "Blairgowrie",
      "Newport-On-Tay",
      "Dundee"
    ]
  },
  {
    "name": "Kyle",
    "lat": 57.2758,
    "lng": -5.694,
    "closestLocations": [
      "Plockton",
      "Strome Ferry",
      "Isle of Scalpay",
      "Strathcarron",
      "Mallaig"
    ]
  },
  {
    "name": "Lairg",
    "lat": 58.0457,
    "lng": -4.3635,
    "closestLocations": [
      "Sutherland",
      "Rogart",
      "Ardgay",
      "Golspie",
      "Dornoch"
    ]
  },
  {
    "name": "Lanark",
    "lat": 55.6713,
    "lng": -3.7738,
    "closestLocations": [
      "Lanarkshire",
      "Carluke",
      "Wishaw, Lanarkshire",
      "Larkhall, Lanarkshire",
      "Strathaven"
    ]
  },
  {
    "name": "Langholm",
    "lat": 55.1503,
    "lng": -2.9748,
    "closestLocations": [
      "Gretna",
      "Lockerbie",
      "Canonbie",
      "Annan",
      "Moffat"
    ]
  },
  {
    "name": "Larbert",
    "lat": 56.02,
    "lng": -3.8278,
    "closestLocations": [
      "Denny",
      "Falkirk",
      "Menstrie",
      "Bonnybridge",
      "Clackmannan"
    ]
  },
  {
    "name": "Largs",
    "lat": 55.7995,
    "lng": -4.8656,
    "closestLocations": [
      "Isle of Bute",
      "Isle of Cumbrae",
      "West Kilbride, Ayrshire",
      "Wemyss Bay",
      "Skelmorlie"
    ]
  },
  {
    "name": "Larkhall, Lanarkshire",
    "lat": 55.7464,
    "lng": -3.9785,
    "closestLocations": [
      "Airdrie",
      "Wishaw, Lanarkshire",
      "Motherwell",
      "Hamilton, Lanarkshire",
      "Strathaven"
    ]
  },
  {
    "name": "Lasswade",
    "lat": 55.871,
    "lng": -3.1272,
    "closestLocations": [
      "Loanhead, Midlothian",
      "Dalkeith",
      "Gorebridge",
      "Roslin",
      "Pathhead, Midlothian"
    ]
  },
  {
    "name": "Latheron",
    "lat": 58.4344,
    "lng": -3.4589,
    "closestLocations": [
      "Dunbeath",
      "Halkirk",
      "Lybster",
      "Thurso",
      "Wick, Caithness"
    ]
  },
  {
    "name": "Lauder",
    "lat": 55.6647,
    "lng": -2.7655,
    "closestLocations": [
      "Galashiels",
      "Walkerburn",
      "Melrose",
      "Heriot",
      "Roxburghshire"
    ]
  },
  {
    "name": "Laurencekirk",
    "lat": 56.8308,
    "lng": -2.608,
    "closestLocations": [
      "Brechin",
      "Montrose",
      "Kincardineshire",
      "Banchory",
      "Forfar"
    ]
  },
  {
    "name": "Leven, Fife",
    "lat": 56.2022,
    "lng": -3.032,
    "closestLocations": [
      "Glenrothes",
      "Kirkcaldy",
      "Cupar",
      "Lochgelly",
      "Fife"
    ]
  },
  {
    "name": "Linlithgow",
    "lat": 55.9797,
    "lng": -3.6092,
    "closestLocations": [
      "Dollar",
      "Bo'ness",
      "Grangemouth",
      "West Lothian",
      "Broxburn"
    ]
  },
  {
    "name": "Livingston",
    "lat": 55.9,
    "lng": -3.5112,
    "closestLocations": [
      "West Calder",
      "Newbridge, Midlothian",
      "Kirknewton, Midlothian",
      "West Lothian",
      "Broxburn"
    ]
  },
  {
    "name": "Loanhead, Midlothian",
    "lat": 55.871,
    "lng": -3.1361,
    "closestLocations": [
      "Lasswade",
      "Roslin",
      "Dalkeith",
      "Gorebridge",
      "Pathhead, Midlothian"
    ]
  },
  {
    "name": "Lochailort",
    "lat": 56.9052,
    "lng": -5.7521,
    "closestLocations": [
      "Arisaig",
      "Isle of Canna",
      "Isle of Skye",
      "Mallaig",
      "Glenfinnan"
    ]
  },
  {
    "name": "Lochearnhead",
    "lat": 56.3675,
    "lng": -4.3383,
    "closestLocations": [
      "Killin",
      "Callander",
      "Scotland",
      "Crianlarich",
      "Bridge Of Orchy"
    ]
  },
  {
    "name": "Lochgelly",
    "lat": 56.1196,
    "lng": -3.236,
    "closestLocations": [
      "Kelty",
      "Kirkcaldy",
      "Fife",
      "Burntisland",
      "Glenrothes"
    ]
  },
  {
    "name": "Lochgilphead",
    "lat": 56.0002,
    "lng": -5.431,
    "closestLocations": [
      "Tighnabruaich",
      "Tarbert, Argyll",
      "Cairndow",
      "Colintraive",
      "Argyll"
    ]
  },
  {
    "name": "Lochwinnoch",
    "lat": 55.7675,
    "lng": -4.6154,
    "closestLocations": [
      "Kilbirnie",
      "Beith",
      "Dalry, Ayrshire",
      "Johnstone",
      "Bridge Of Weir"
    ]
  },
  {
    "name": "Lockerbie",
    "lat": 55.2428,
    "lng": -3.2501,
    "closestLocations": [
      "Moffat",
      "Langholm",
      "Annan",
      "Dumfries, Dumfriesshire",
      "Gretna"
    ]
  },
  {
    "name": "Longniddry",
    "lat": 55.975,
    "lng": -2.9227,
    "closestLocations": [
      "Prestonpans",
      "Tranent",
      "Gullane",
      "East Linton",
      "Haddington, East Lothian"
    ]
  },
  {
    "name": "Lossiemouth",
    "lat": 57.659,
    "lng": -3.2907,
    "closestLocations": [
      "Elgin",
      "Banffshire",
      "Fochabers",
      "Buckie",
      "Morayshire"
    ]
  },
  {
    "name": "Lybster",
    "lat": 58.2864,
    "lng": -3.4155,
    "closestLocations": [
      "Dunbeath",
      "Latheron",
      "Helmsdale",
      "Wick, Caithness",
      "Halkirk"
    ]
  },
  {
    "name": "Macduff",
    "lat": 57.6719,
    "lng": -2.5081,
    "closestLocations": [
      "Banff",
      "Turriff",
      "Keith",
      "Huntly",
      "Fraserburgh"
    ]
  },
  {
    "name": "Mallaig",
    "lat": 57.0039,
    "lng": -5.8264,
    "closestLocations": [
      "Isle of Skye",
      "Arisaig",
      "Lochailort",
      "Isle of Scalpay",
      "Isle of Canna"
    ]
  },
  {
    "name": "Mauchline",
    "lat": 55.578,
    "lng": -4.3643,
    "closestLocations": [
      "Galston",
      "Newmilns",
      "Kilmarnock",
      "Ayrshire",
      "Darvel"
    ]
  },
  {
    "name": "Maybole",
    "lat": 55.3591,
    "lng": -4.6754,
    "closestLocations": [
      "Ayr, Ayrshire",
      "Girvan",
      "Prestwick, Ayrshire",
      "Ayrshire",
      "Troon, Ayrshire"
    ]
  },
  {
    "name": "Melrose",
    "lat": 55.6073,
    "lng": -2.7387,
    "closestLocations": [
      "Walkerburn",
      "Galashiels",
      "Lauder",
      "Earlston, Berwickshire",
      "Selkirk"
    ]
  },
  {
    "name": "Menstrie",
    "lat": 56.0775,
    "lng": -3.8275,
    "closestLocations": [
      "Clackmannan",
      "Clackmannanshire",
      "Alloa",
      "Tillicoultry",
      "Larbert"
    ]
  },
  {
    "name": "Milltimber",
    "lat": 57.102,
    "lng": -2.1952,
    "closestLocations": [
      "Peterculter",
      "Westhill, Aberdeenshire",
      "Aberdeenshire",
      "Aberdeen",
      "Stonehaven"
    ]
  },
  {
    "name": "Moffat",
    "lat": 55.2295,
    "lng": -3.3518,
    "closestLocations": [
      "Lockerbie",
      "Dumfries, Dumfriesshire",
      "Langholm",
      "Annan",
      "Dumfriesshire"
    ]
  },
  {
    "name": "Montrose",
    "lat": 56.7071,
    "lng": -2.4597,
    "closestLocations": [
      "Brechin",
      "Laurencekirk",
      "Arbroath",
      "Forfar",
      "Angus"
    ]
  },
  {
    "name": "Motherwell",
    "lat": 55.7863,
    "lng": -3.9987,
    "closestLocations": [
      "Airdrie",
      "Hamilton, Lanarkshire",
      "Bellshill, Lanarkshire",
      "Larkhall, Lanarkshire",
      "Wishaw, Lanarkshire"
    ]
  },
  {
    "name": "Muir Of Ord",
    "lat": 57.487,
    "lng": -4.4519,
    "closestLocations": [
      "Beauly",
      "Strathpeffer",
      "Dingwall",
      "Munlochy",
      "Inverness"
    ]
  },
  {
    "name": "Munlochy",
    "lat": 57.533,
    "lng": -4.258,
    "closestLocations": [
      "Inverness",
      "Fortrose",
      "Dingwall",
      "Muir Of Ord",
      "Strathpeffer"
    ]
  },
  {
    "name": "Musselburgh",
    "lat": 55.9433,
    "lng": -3.0694,
    "closestLocations": [
      "Dalkeith",
      "Prestonpans",
      "Edinburgh",
      "Tranent",
      "Lasswade"
    ]
  },
  {
    "name": "Nairnshire",
    "lat": 57.575,
    "lng": -3.868,
    "closestLocations": [
      "Nairn",
      "Cromarty",
      "Forres, Morayshire",
      "Fortrose",
      "Morayshire"
    ]
  },
  {
    "name": "Nairn",
    "lat": 57.5853,
    "lng": -3.8689,
    "closestLocations": [
      "Nairnshire",
      "Cromarty",
      "Forres, Morayshire",
      "Fortrose",
      "Morayshire"
    ]
  },
  {
    "name": "Nethy Bridge",
    "lat": 57.3089,
    "lng": -3.66,
    "closestLocations": [
      "Grantown-On-Spey",
      "Boat Of Garten",
      "Aviemore",
      "Avoch",
      "Inverness-Shire"
    ]
  },
  {
    "name": "Newbridge, Midlothian",
    "lat": 55.9002,
    "lng": -3.4515,
    "closestLocations": [
      "Kirknewton, Midlothian",
      "Livingston",
      "West Calder",
      "Kirkliston",
      "Broxburn"
    ]
  },
  {
    "name": "Newcastleton",
    "lat": 55.3923,
    "lng": -2.4952,
    "closestLocations": [
      "Jedburgh",
      "Hawick",
      "Coldstream",
      "Earlston, Berwickshire",
      "Kelso"
    ]
  },
  {
    "name": "Newmilns",
    "lat": 55.6358,
    "lng": -4.4253,
    "closestLocations": [
      "Galston",
      "Kilmarnock",
      "Mauchline",
      "Dalry, Ayrshire",
      "Irvine, Ayrshire"
    ]
  },
  {
    "name": "Newport-On-Tay",
    "lat": 56.4627,
    "lng": -2.977,
    "closestLocations": [
      "Dundee",
      "Tayport",
      "Cupar",
      "Carnoustie",
      "St. Andrews, Fife"
    ]
  },
  {
    "name": "Wigtownshire",
    "lat": 54.8577,
    "lng": -4.3692,
    "closestLocations": [
      "Newton Stewart",
      "Kirkcudbrightshire",
      "Kirkcudbright",
      "Castle Douglas",
      "Dalbeattie"
    ]
  },
  {
    "name": "Newton Stewart",
    "lat": 54.9919,
    "lng": -4.2451,
    "closestLocations": [
      "Wigtownshire",
      "Kirkcudbright",
      "Dalbeattie",
      "Castle Douglas",
      "Kirkcudbrightshire"
    ]
  },
  {
    "name": "Newtonmore",
    "lat": 56.924,
    "lng": -4.1139,
    "closestLocations": [
      "Dalwhinnie",
      "Kingussie",
      "Pitlochry",
      "Aviemore",
      "Avoch"
    ]
  },
  {
    "name": "North Berwick",
    "lat": 56.0573,
    "lng": -2.8533,
    "closestLocations": [
      "Gullane",
      "Longniddry",
      "East Linton",
      "Haddington, East Lothian",
      "Prestonpans"
    ]
  },
  {
    "name": "Oban",
    "lat": 56.4117,
    "lng": -5.4706,
    "closestLocations": [
      "Taynuilt",
      "Dalmally",
      "Argyll",
      "Appin",
      "Inveraray"
    ]
  },
  {
    "name": "Orkney, Orkney",
    "lat": 58.9883,
    "lng": -2.9633,
    "closestLocations": [
      "Orkney",
      "Kirkwall",
      "Stromness",
      "Caithness",
      "Berriedale"
    ]
  },
  {
    "name": "Paisley",
    "lat": 55.8432,
    "lng": -4.4244,
    "closestLocations": [
      "Renfrewshire",
      "Johnstone",
      "Bridge Of Weir",
      "Renfrew",
      "Erskine"
    ]
  },
  {
    "name": "Pathhead, Midlothian",
    "lat": 55.8602,
    "lng": -3.0681,
    "closestLocations": [
      "Gorebridge",
      "Lasswade",
      "Dalkeith",
      "Loanhead, Midlothian",
      "Midlothian"
    ]
  },
  {
    "name": "Peebles",
    "lat": 55.6555,
    "lng": -3.1945,
    "closestLocations": [
      "Peeblesshire",
      "West Linton",
      "Innerleithen",
      "Biggar, Lanarkshire",
      "Heriot"
    ]
  },
  {
    "name": "Penicuik",
    "lat": 55.8336,
    "lng": -3.2235,
    "closestLocations": [
      "Bonnyrigg",
      "Rosewell",
      "Roslin",
      "Loanhead, Midlothian",
      "Lasswade"
    ]
  },
  {
    "name": "Perth, Perthshire",
    "lat": 56.3969,
    "lng": -3.4373,
    "closestLocations": [
      "Auchterarder",
      "Blairgowrie",
      "Kinross-Shire",
      "Kinross",
      "Dunkeld"
    ]
  },
  {
    "name": "Peterculter",
    "lat": 57.1053,
    "lng": -2.2201,
    "closestLocations": [
      "Milltimber",
      "Westhill, Aberdeenshire",
      "Aberdeenshire",
      "Aberdeen",
      "Stonehaven"
    ]
  },
  {
    "name": "Peterhead",
    "lat": 57.502,
    "lng": -1.7862,
    "closestLocations": [
      "Ellon",
      "Fraserburgh",
      "Turriff",
      "Inverurie",
      "Aberdeen"
    ]
  },
  {
    "name": "Pitlochry",
    "lat": 56.703,
    "lng": -3.7322,
    "closestLocations": [
      "Perthshire",
      "Aberfeldy",
      "Dunkeld",
      "Dalwhinnie",
      "Blairgowrie"
    ]
  },
  {
    "name": "Plockton",
    "lat": 57.333,
    "lng": -5.7083,
    "closestLocations": [
      "Strome Ferry",
      "Kyle",
      "Strathcarron",
      "Isle of Scalpay",
      "Portree"
    ]
  },
  {
    "name": "Port Glasgow",
    "lat": 55.9298,
    "lng": -4.6402,
    "closestLocations": [
      "Kilmacolm",
      "Dumbarton",
      "Greenock",
      "Alexandria, Dunbartonshire",
      "Bishopton, Renfrewshire"
    ]
  },
  {
    "name": "Portree",
    "lat": 57.4167,
    "lng": -6.1944,
    "closestLocations": [
      "Plockton",
      "Isle of Scalpay",
      "Kyle",
      "Strome Ferry",
      "Gairloch"
    ]
  },
  {
    "name": "Prestonpans",
    "lat": 55.9475,
    "lng": -2.9657,
    "closestLocations": [
      "Tranent",
      "Longniddry",
      "Musselburgh",
      "Humbie",
      "East Linton"
    ]
  },
  {
    "name": "Prestwick, Ayrshire",
    "lat": 55.4956,
    "lng": -4.5919,
    "closestLocations": [
      "Ayr, Ayrshire",
      "Troon, Ayrshire",
      "Ayrshire",
      "Kilmarnock",
      "Irvine, Ayrshire"
    ]
  },
  {
    "name": "Renfrew",
    "lat": 55.9,
    "lng": -4.3873,
    "closestLocations": [
      "Clydebank",
      "Erskine",
      "Renfrewshire",
      "Paisley",
      "Dunbartonshire"
    ]
  },
  {
    "name": "Rogart",
    "lat": 57.949,
    "lng": -4.2012,
    "closestLocations": [
      "Ardgay",
      "Dornoch",
      "Sutherland",
      "Golspie",
      "Lairg"
    ]
  },
  {
    "name": "Rosewell",
    "lat": 55.8104,
    "lng": -3.1875,
    "closestLocations": [
      "Penicuik",
      "Bonnyrigg",
      "Roslin",
      "Midlothian",
      "Gorebridge"
    ]
  },
  {
    "name": "Roslin",
    "lat": 55.8538,
    "lng": -3.1796,
    "closestLocations": [
      "Bonnyrigg",
      "Loanhead, Midlothian",
      "Penicuik",
      "Lasswade",
      "Rosewell"
    ]
  },
  {
    "name": "Roy Bridge",
    "lat": 56.8975,
    "lng": -4.914,
    "closestLocations": [
      "Spean Bridge",
      "Corrour",
      "Fort William",
      "Kinlochleven",
      "Ballachulish"
    ]
  },
  {
    "name": "Saltcoats, Ayrshire",
    "lat": 55.6282,
    "lng": -4.7262,
    "closestLocations": [
      "Stevenston",
      "Kilwinning",
      "Irvine, Ayrshire",
      "Ardrossan",
      "Troon, Ayrshire"
    ]
  },
  {
    "name": "Sanquhar, Dumfriesshire",
    "lat": 55.3947,
    "lng": -3.9991,
    "closestLocations": [
      "Cumnock",
      "Thornhill, Dumfriesshire",
      "Darvel",
      "Mauchline",
      "Strathaven"
    ]
  },
  {
    "name": "Selkirk",
    "lat": 55.5502,
    "lng": -2.846,
    "closestLocations": [
      "Selkirkshire",
      "Walkerburn",
      "Galashiels",
      "Melrose",
      "Heriot"
    ]
  },
  {
    "name": "Shetland Islands",
    "lat": 60.2012,
    "lng": -1.3047,
    "closestLocations": [
      "Shetland, Shetland Islands"
    ]
  },
  {
    "name": "Shetland, Shetland Islands",
    "lat": 60.2012,
    "lng": -1.3047,
    "closestLocations": [
      "Shetland Islands"
    ]
  },
  {
    "name": "Shotts",
    "lat": 55.8498,
    "lng": -3.8174,
    "closestLocations": [
      "Wishaw, Lanarkshire",
      "Carluke",
      "Coatbridge",
      "Motherwell",
      "Bellshill, Lanarkshire"
    ]
  },
  {
    "name": "Skelmorlie",
    "lat": 55.9075,
    "lng": -4.878,
    "closestLocations": [
      "Wemyss Bay",
      "Dunoon",
      "Gourock",
      "Isle of Bute",
      "Greenock"
    ]
  },
  {
    "name": "South Queensferry",
    "lat": 55.9881,
    "lng": -3.4005,
    "closestLocations": [
      "Broxburn",
      "Inverkeithing",
      "Cowdenbeath",
      "Dunfermline",
      "Kirkliston"
    ]
  },
  {
    "name": "Spean Bridge",
    "lat": 56.8726,
    "lng": -4.8842,
    "closestLocations": [
      "Roy Bridge",
      "Corrour",
      "Fort William",
      "Kinlochleven",
      "Ballachulish"
    ]
  },
  {
    "name": "St. Andrews, Fife",
    "lat": 56.3401,
    "lng": -2.8031,
    "closestLocations": [
      "Cupar",
      "Tayport",
      "Carnoustie",
      "Anstruther",
      "Dundee"
    ]
  },
  {
    "name": "Stevenston",
    "lat": 55.636,
    "lng": -4.7381,
    "closestLocations": [
      "Saltcoats, Ayrshire",
      "Kilwinning",
      "Irvine, Ayrshire",
      "Ardrossan",
      "West Kilbride, Ayrshire"
    ]
  },
  {
    "name": "Stirling",
    "lat": 56.1165,
    "lng": -3.936,
    "closestLocations": [
      "Menstrie",
      "Stirlingshire",
      "Clackmannanshire",
      "Clackmannan",
      "Alloa"
    ]
  },
  {
    "name": "Stonehaven",
    "lat": 56.9656,
    "lng": -2.2214,
    "closestLocations": [
      "Kincardineshire",
      "Milltimber",
      "Peterculter",
      "Banchory",
      "Westhill, Aberdeenshire"
    ]
  },
  {
    "name": "Stornoway",
    "lat": 58.2065,
    "lng": -6.3872,
    "closestLocations": [
      "Isle of Lewis",
      "Isle of Harris",
      "Ullapool",
      "Gairloch"
    ]
  },
  {
    "name": "Stranraer",
    "lat": 54.9039,
    "lng": -5.0311,
    "closestLocations": [
      "Wigtownshire",
      "Girvan",
      "Donaghadee",
      "Carrickfergus",
      "Larne"
    ]
  },
  {
    "name": "Strathaven",
    "lat": 55.6952,
    "lng": -4.0342,
    "closestLocations": [
      "Larkhall, Lanarkshire",
      "Airdrie",
      "Lanarkshire",
      "Hamilton, Lanarkshire",
      "Motherwell"
    ]
  },